,TeamID,Key,Active,School,Name,ApRank,Wins,Losses,ConferenceWins,ConferenceLosses,GlobalTeamID,ConferenceID,Conference,TeamLogoUrl,ShortDisplayName,Stadium
0,1,SMU,True,SMU,Mustangs,,20.0,7.0,11.0,4.0,60000001,1.0,American Athletic,https://s3-us-west-2.amazonaws.com/static.fantasydata.com/logos/ncaa/1.png,SMU,"{'StadiumID': 101, 'Active': True, 'Name': 'Moody Coliseum', 'Address': None, 'City': 'Dallas', 'State': 'TX', 'Zip': None, 'Country': None, 'Capacity': 7000, 'GeoLat': 32.840278, 'GeoLong': -96.780556}"
1,2,TEMPL,True,Temple,Owls,,16.0,10.0,9.0,6.0,60000002,1.0,American Athletic,https://s3-us-west-2.amazonaws.com/static.fantasydata.com/logos/ncaa/2.png,TEMPLE,"{'StadiumID': 45, 'Active': True, 'Name': 'Liacouras Center', 'Address': None, 'City': 'Philadelphia', 'State': 'PA', 'Zip': None, 'Country': None, 'Capacity': 10206, 'GeoLat': 39.979722, 'GeoLong': -75.158611}"
2,3,UCONN,True,Connecticut,Huskies,18.0,21.0,7.0,12.0,5.0,60000003,6.0,Big East,https://s3-us-west-2.amazonaws.com/static.fantasydata.com/logos/ncaa/3.png,UCONN,"{'StadiumID': 290, 'Active': True, 'Name': 'Gampel Pavilion', 'Address': None, 'City': 'Storrs', 'State': 'CT', 'Zip': None, 'Country': None, 'Capacity': 10167, 'GeoLat': 41.805292, 'GeoLong': -72.254194}"
3,4,CIN,True,Cincinnati,Bearcats,,17.0,12.0,7.0,9.0,60000004,1.0,American Athletic,https://s3-us-west-2.amazonaws.com/static.fantasydata.com/logos/ncaa/4.png,CIN,"{'StadiumID': 86, 'Active': True, 'Name': 'Fifth Third Arena', 'Address': None, 'City': 'Cincinnati', 'State': 'OH', 'Zip': None, 'Country': None, 'Capacity': 12012, 'GeoLat': 39.131101, 'GeoLong': -84.514207}"
4,5,TULSA,True,Tulsa,Golden Hurricane,,9.0,18.0,3.0,13.0,60000005,1.0,American Athletic,https://s3-us-west-2.amazonaws.com/static.fantasydata.com/logos/ncaa/5.png,TULSA,"{'StadiumID': 48, 'Active': True, 'Name': 'Reynolds Center', 'Address': None, 'City': 'Tulsa', 'State': 'OK', 'Zip': None, 'Country': None, 'Capacity': 8355, 'GeoLat': 36.148611, 'GeoLong': -95.941944}"
5,6,HOU,True,Houston,Cougars,14.0,24.0,4.0,13.0,2.0,60000006,1.0,American Athletic,https://s3-us-west-2.amazonaws.com/static.fantasydata.com/logos/ncaa/6.png,UH,"{'StadiumID': 343, 'Active': True, 'Name': 'Fertitta Center', 'Address': None, 'City': 'Houston', 'State': 'TX', 'Zip': None, 'Country': None, 'Capacity': 7100, 'GeoLat': 29.724722, 'GeoLong': -95.346944}"
6,7,MPHS,True,Memphis,Tigers,,17.0,9.0,11.0,5.0,60000007,1.0,American Athletic,https://s3-us-west-2.amazonaws.com/static.fantasydata.com/logos/ncaa/7.png,MEM,"{'StadiumID': 47, 'Active': True, 'Name': 'FedExForum', 'Address': None, 'City': 'Memphis', 'State': 'TN', 'Zip': None, 'Country': None, 'Capacity': 18400, 'GeoLat': 35.138333, 'GeoLong': -90.050556}"
7,8,UCF,True,UCF,Knights,,17.0,9.0,9.0,7.0,60000008,1.0,American Athletic,https://s3-us-west-2.amazonaws.com/static.fantasydata.com/logos/ncaa/8.png,UCF,"{'StadiumID': 20, 'Active': True, 'Name': 'Addition Financial Arena', 'Address': None, 'City': 'Orlando', 'State': 'FL', 'Zip': None, 'Country': None, 'Capacity': 10000, 'GeoLat': 28.6068, 'GeoLong': -81.1976}"
8,9,ECAR,True,East Carolina,Pirates,,15.0,13.0,6.0,10.0,60000009,1.0,American Athletic,https://s3-us-west-2.amazonaws.com/static.fantasydata.com/logos/ncaa/9.png,ECU,"{'StadiumID': 46, 'Active': True, 'Name': 'Minges Coliseum', 'Address': None, 'City': 'Greenville', 'State': 'NC', 'Zip': None, 'Country': None, 'Capacity': 7100, 'GeoLat': 35.597391, 'GeoLong': -77.367167}"
9,10,TULANE,True,Tulane,Green Wave,,12.0,13.0,9.0,7.0,60000010,1.0,American Athletic,https://s3-us-west-2.amazonaws.com/static.fantasydata.com/logos/ncaa/10.png,TULANE,"{'StadiumID': 176, 'Active': True, 'Name': 'Devlin Fieldhouse', 'Address': None, 'City': 'New Orleans', 'State': 'LA', 'Zip': None, 'Country': None, 'Capacity': 4100, 'GeoLat': 29.938611, 'GeoLong': -90.120556}"
10,11,SFL,True,South Florida,Bulls,,8.0,20.0,3.0,13.0,60000011,1.0,American Athletic,https://s3-us-west-2.amazonaws.com/static.fantasydata.com/logos/ncaa/11.png,USF,"{'StadiumID': 21, 'Active': True, 'Name': 'Yuengling Center', 'Address': None, 'City': 'Tampa', 'State': 'FL', 'Zip': None, 'Country': None, 'Capacity': 10411, 'GeoLat': 28.059236, 'GeoLong': -82.406472}"
11,12,STBR,True,Stony Brook,Seawolves,,17.0,13.0,9.0,8.0,60000012,2.0,America East,https://s3-us-west-2.amazonaws.com/static.fantasydata.com/logos/ncaa/12.png,STBR,"{'StadiumID': 339, 'Active': True, 'Name': 'Island FCU Arena', 'Address': None, 'City': 'Stony Brook', 'State': 'NY', 'Zip': None, 'Country': None, 'Capacity': 4000, 'GeoLat': 40.91741, 'GeoLong': -73.125955}"
12,13,ALBNY,True,Albany,Great Danes,,13.0,16.0,9.0,8.0,60000013,2.0,America East,https://s3-us-west-2.amazonaws.com/static.fantasydata.com/logos/ncaa/13.png,ALBANY,"{'StadiumID': 215, 'Active': True, 'Name': 'SEFCU Arena', 'Address': None, 'City': 'Albany', 'State': 'NY', 'Zip': None, 'Country': None, 'Capacity': 4280, 'GeoLat': 42.681667, 'GeoLong': -73.828333}"
13,14,NHAMP,True,New Hampshire,Wildcats,,14.0,12.0,9.0,8.0,60000014,2.0,America East,https://s3-us-west-2.amazonaws.com/static.fantasydata.com/logos/ncaa/14.png,UNH,"{'StadiumID': 231, 'Active': True, 'Name': 'Lundholm Gymnasium', 'Address': None, 'City': 'Durham', 'State': 'NH', 'Zip': None, 'Country': None, 'Capacity': 2500, 'GeoLat': 43.138611, 'GeoLong': -70.938056}"
14,15,VERM,True,Vermont,Catamounts,,24.0,5.0,16.0,1.0,60000015,2.0,America East,https://s3-us-west-2.amazonaws.com/static.fantasydata.com/logos/ncaa/15.png,UVM,"{'StadiumID': 252, 'Active': True, 'Name': 'Patrick Gymnasium', 'Address': None, 'City': 'Burlington', 'State': 'VT', 'Zip': None, 'Country': None, 'Capacity': 3266, 'GeoLat': 44.470264, 'GeoLong': -73.194705}"
15,16,MASLOW,True,Massachusetts-Lowell,River Hawks,,14.0,14.0,6.0,10.0,60000016,2.0,America East,https://s3-us-west-2.amazonaws.com/static.fantasydata.com/logos/ncaa/16.png,MASLOW,"{'StadiumID': 147, 'Active': True, 'Name': 'Costello Athletic Center', 'Address': None, 'City': 'Lowell', 'State': 'MA', 'Zip': None, 'Country': None, 'Capacity': 2000, 'GeoLat': 42.6555, 'GeoLong': -71.3242}"
16,17,MAINE,True,Maine,Black Bears,,6.0,22.0,3.0,14.0,60000017,2.0,America East,https://s3-us-west-2.amazonaws.com/static.fantasydata.com/logos/ncaa/17.png,MAINE,"{'StadiumID': 298, 'Active': True, 'Name': 'Cross Insurance Center', 'Address': None, 'City': 'Bangor', 'State': 'ME', 'Zip': None, 'Country': None, 'Capacity': 6674, 'GeoLat': 44.7893, 'GeoLong': -68.7787}"
17,18,HARTFD,True,Hartford,Hawks,,10.0,18.0,8.0,8.0,60000018,2.0,America East,https://s3-us-west-2.amazonaws.com/static.fantasydata.com/logos/ncaa/18.png,HARTFD,"{'StadiumID': 27, 'Active': True, 'Name': 'Chase Arena', 'Address': None, 'City': 'West Hartford', 'State': 'CT', 'Zip': None, 'Country': None, 'Capacity': 3507, 'GeoLat': 41.801769, 'GeoLong': -72.718567}"
18,19,UMBC,True,UMBC,Retrievers,,15.0,13.0,10.0,7.0,60000019,2.0,America East,https://s3-us-west-2.amazonaws.com/static.fantasydata.com/logos/ncaa/19.png,UMBC,"{'StadiumID': 449, 'Active': True, 'Name': 'UMBC Event Center', 'Address': None, 'City': 'Baltimore', 'State': 'MD', 'Zip': None, 'Country': None, 'Capacity': 6000, 'GeoLat': 39.252342, 'GeoLong': -76.707431}"
19,20,BING,True,Binghamton,Bearcats,,11.0,15.0,8.0,9.0,60000020,2.0,America East,https://s3-us-west-2.amazonaws.com/static.fantasydata.com/logos/ncaa/20.png,BING,"{'StadiumID': 52, 'Active': True, 'Name': 'Events Center (Binghamton)', 'Address': None, 'City': 'Binghamton', 'State': 'NY', 'Zip': None, 'Country': None, 'Capacity': 5142, 'GeoLat': 42.093333, 'GeoLong': -75.971944}"
20,21,NCAR,True,North Carolina,Tar Heels,,22.0,8.0,14.0,5.0,60000021,3.0,Atlantic Coast,https://s3-us-west-2.amazonaws.com/static.fantasydata.com/logos/ncaa/21.png,UNC,"{'StadiumID': 185, 'Active': True, 'Name': 'Dean E. Smith Center', 'Address': None, 'City': 'Chapel Hill', 'State': 'NC', 'Zip': None, 'Country': None, 'Capacity': 21750, 'GeoLat': 35.899722, 'GeoLong': -79.043889}"
21,22,VIR,True,Virginia,Cavaliers,,17.0,12.0,11.0,8.0,60000022,3.0,Atlantic Coast,https://s3-us-west-2.amazonaws.com/static.fantasydata.com/logos/ncaa/22.png,VIR,"{'StadiumID': 4, 'Active': True, 'Name': 'John Paul Jones Arena', 'Address': None, 'City': 'Charlottesville', 'State': 'VA', 'Zip': None, 'Country': None, 'Capacity': 14593, 'GeoLat': 38.046, 'GeoLong': -78.507}"
22,23,MIA,True,Miami (FL),Hurricanes,,20.0,9.0,12.0,6.0,60000023,3.0,Atlantic Coast,https://s3-us-west-2.amazonaws.com/static.fantasydata.com/logos/ncaa/23.png,MIA,"{'StadiumID': 115, 'Active': True, 'Name': 'Watsco Center', 'Address': None, 'City': 'Coral Gables', 'State': 'FL', 'Zip': None, 'Country': None, 'Capacity': 7972, 'GeoLat': 25.715, 'GeoLong': -80.279167}"
23,24,LOU,True,Louisville,Cardinals,,12.0,16.0,6.0,12.0,60000024,3.0,Atlantic Coast,https://s3-us-west-2.amazonaws.com/static.fantasydata.com/logos/ncaa/24.png,LOU,"{'StadiumID': 97, 'Active': True, 'Name': 'KFC Yum! Center', 'Address': None, 'City': 'Louisville', 'State': 'KY', 'Zip': None, 'Country': None, 'Capacity': 22000, 'GeoLat': 38.2575, 'GeoLong': -85.753889}"
24,25,ND,True,Notre Dame,Fighting Irish,,21.0,8.0,14.0,4.0,60000025,3.0,Atlantic Coast,https://s3-us-west-2.amazonaws.com/static.fantasydata.com/logos/ncaa/25.png,ND,"{'StadiumID': 32, 'Active': True, 'Name': 'Purcell Pavilion', 'Address': None, 'City': 'South Bend', 'State': 'IN', 'Zip': None, 'Country': None, 'Capacity': 9149, 'GeoLat': 41.698443, 'GeoLong': -86.231292}"
25,26,DUKE,True,Duke,Blue Devils,4.0,25.0,4.0,15.0,3.0,60000026,3.0,Atlantic Coast,https://s3-us-west-2.amazonaws.com/static.fantasydata.com/logos/ncaa/26.png,DUKE,"{'StadiumID': 211, 'Active': True, 'Name': 'Cameron Indoor Stadium', 'Address': None, 'City': 'Durham', 'State': 'NC', 'Zip': None, 'Country': None, 'Capacity': 9314, 'GeoLat': 35.9976, 'GeoLong': -78.9422}"
26,27,CLMSN,True,Clemson,Tigers,,14.0,15.0,6.0,12.0,60000027,3.0,Atlantic Coast,https://s3-us-west-2.amazonaws.com/static.fantasydata.com/logos/ncaa/27.png,CLEM,"{'StadiumID': 13, 'Active': True, 'Name': 'Littlejohn Coliseum', 'Address': None, 'City': 'Clemson', 'State': 'SC', 'Zip': None, 'Country': None, 'Capacity': 9000, 'GeoLat': 34.680278, 'GeoLong': -82.846389}"
27,28,PITT,True,Pittsburgh,Panthers,,11.0,18.0,6.0,12.0,60000028,3.0,Atlantic Coast,https://s3-us-west-2.amazonaws.com/static.fantasydata.com/logos/ncaa/28.png,PITT,"{'StadiumID': 31, 'Active': True, 'Name': 'Petersen Events Center', 'Address': None, 'City': 'Pittsburgh', 'State': 'PA', 'Zip': None, 'Country': None, 'Capacity': 12508, 'GeoLat': 40.443777, 'GeoLong': -79.962274}"
28,29,FLST,True,Florida State,Seminoles,,15.0,13.0,8.0,10.0,60000029,3.0,Atlantic Coast,https://s3-us-west-2.amazonaws.com/static.fantasydata.com/logos/ncaa/29.png,FSU,"{'StadiumID': 11, 'Active': True, 'Name': 'Donald L. Tucker Center', 'Address': None, 'City': 'Tallahassee', 'State': 'FL', 'Zip': None, 'Country': None, 'Capacity': 11500, 'GeoLat': 30.437842, 'GeoLong': -84.28669}"
29,30,SYRA,True,Syracuse,Orange,,15.0,15.0,9.0,10.0,60000030,3.0,Atlantic Coast,https://s3-us-west-2.amazonaws.com/static.fantasydata.com/logos/ncaa/30.png,SYRA,"{'StadiumID': 10, 'Active': True, 'Name': 'Carrier Dome', 'Address': None, 'City': 'Syracuse', 'State': 'NY', 'Zip': None, 'Country': None, 'Capacity': 35446, 'GeoLat': 43.036111, 'GeoLong': -76.136389}"
30,31,VTECH,True,Virginia Tech,Hokies,,18.0,11.0,10.0,8.0,60000031,3.0,Atlantic Coast,https://s3-us-west-2.amazonaws.com/static.fantasydata.com/logos/ncaa/31.png,VTECH,"{'StadiumID': 107, 'Active': True, 'Name': 'Cassell Coliseum', 'Address': None, 'City': 'Blacksburg', 'State': 'VA', 'Zip': None, 'Country': None, 'Capacity': 8925, 'GeoLat': 37.222222, 'GeoLong': -80.418889}"
31,32,GTECH,True,Georgia Tech,Yellow Jackets,,11.0,18.0,4.0,14.0,60000032,3.0,Atlantic Coast,https://s3-us-west-2.amazonaws.com/static.fantasydata.com/logos/ncaa/32.png,GTECH,"{'StadiumID': 129, 'Active': True, 'Name': 'McCamish Pavilion', 'Address': None, 'City': 'Atlanta', 'State': 'GA', 'Zip': None, 'Country': None, 'Capacity': 8600, 'GeoLat': 33.780833, 'GeoLong': -84.392778}"
32,33,NCST,True,North Carolina State,Wolfpack,,11.0,18.0,4.0,14.0,60000033,3.0,Atlantic Coast,https://s3-us-west-2.amazonaws.com/static.fantasydata.com/logos/ncaa/33.png,NCSU,"{'StadiumID': 145, 'Active': True, 'Name': 'PNC Arena', 'Address': None, 'City': 'Raleigh', 'State': 'NC', 'Zip': None, 'Country': None, 'Capacity': 19722, 'GeoLat': 35.803333, 'GeoLong': -78.721944}"
33,34,WAKE,True,Wake Forest,Demon Deacons,,22.0,8.0,12.0,7.0,60000034,3.0,Atlantic Coast,https://s3-us-west-2.amazonaws.com/static.fantasydata.com/logos/ncaa/34.png,WAKE,"{'StadiumID': 152, 'Active': True, 'Name': 'Lawrence Joel Coliseum', 'Address': None, 'City': 'Winston-Salem', 'State': 'NC', 'Zip': None, 'Country': None, 'Capacity': 14665, 'GeoLat': 36.127866, 'GeoLong': -80.257628}"
34,35,BOSCOL,True,Boston College,Eagles,,11.0,17.0,6.0,12.0,60000035,3.0,Atlantic Coast,https://s3-us-west-2.amazonaws.com/static.fantasydata.com/logos/ncaa/35.png,BC,"{'StadiumID': 30, 'Active': True, 'Name': 'Silvio Conte Forum', 'Address': None, 'City': 'Chestnut Hill', 'State': 'MA', 'Zip': None, 'Country': None, 'Capacity': 8606, 'GeoLat': 42.335, 'GeoLong': -71.1675}"
35,36,NFL,True,North Florida,Ospreys,,11.0,19.0,7.0,9.0,60000036,4.0,Atlantic Sun,https://s3-us-west-2.amazonaws.com/static.fantasydata.com/logos/ncaa/36.png,NFL,"{'StadiumID': 317, 'Active': True, 'Name': 'UNF Arena', 'Address': None, 'City': 'Jacksonville', 'State': 'FL', 'Zip': None, 'Country': None, 'Capacity': 5800, 'GeoLat': 30.2734, 'GeoLong': -81.5079}"
36,37,JAX,True,Jacksonville,Dolphins,,19.0,9.0,11.0,5.0,60000037,4.0,Atlantic Sun,https://s3-us-west-2.amazonaws.com/static.fantasydata.com/logos/ncaa/37.png,JAX,"{'StadiumID': 35, 'Active': True, 'Name': 'Swisher Gymnasium', 'Address': None, 'City': 'Jacksonville', 'State': 'FL', 'Zip': None, 'Country': None, 'Capacity': 1452, 'GeoLat': 30.350278, 'GeoLong': -81.605}"
37,38,FLGC,True,Florida Gulf Coast,Eagles,,20.0,10.0,10.0,6.0,60000038,4.0,Atlantic Sun,https://s3-us-west-2.amazonaws.com/static.fantasydata.com/logos/ncaa/38.png,FLGC,"{'StadiumID': 307, 'Active': True, 'Name': 'Alico Arena', 'Address': None, 'City': 'Fort Myers', 'State': 'FL', 'Zip': None, 'Country': None, 'Capacity': 4633, 'GeoLat': 26.471111, 'GeoLong': -81.764722}"
38,39,NJIT,True,NJIT,Highlanders,,11.0,16.0,6.0,11.0,60000039,2.0,America East,https://s3-us-west-2.amazonaws.com/static.fantasydata.com/logos/ncaa/39.png,NJIT,"{'StadiumID': 28, 'Active': True, 'Name': 'NJIT Wellness and Events Center', 'Address': None, 'City': 'Newark', 'State': 'NJ', 'Zip': None, 'Country': None, 'Capacity': 3500, 'GeoLat': 40.743125, 'GeoLong': -74.182161}"
39,40,LIPSC,True,Lipscomb,Bisons,,13.0,18.0,6.0,10.0,60000040,4.0,Atlantic Sun,https://s3-us-west-2.amazonaws.com/static.fantasydata.com/logos/ncaa/40.png,LIPSC,"{'StadiumID': 156, 'Active': True, 'Name': 'Allen Arena', 'Address': None, 'City': 'Nashville', 'State': 'TN', 'Zip': None, 'Country': None, 'Capacity': 5028, 'GeoLat': 36.103833, 'GeoLong': -86.798836}"
40,41,STETSN,True,Stetson,Hatters,,11.0,18.0,5.0,11.0,60000041,4.0,Atlantic Sun,https://s3-us-west-2.amazonaws.com/static.fantasydata.com/logos/ncaa/41.png,STETSN,"{'StadiumID': 264, 'Active': True, 'Name': 'Edmunds Center', 'Address': None, 'City': 'Deland', 'State': 'FL', 'Zip': None, 'Country': None, 'Capacity': 4000, 'GeoLat': 29.039584, 'GeoLong': -81.301819}"
41,42,KENEST,True,Kennesaw State,Owls,,12.0,17.0,7.0,9.0,60000042,4.0,Atlantic Sun,https://s3-us-west-2.amazonaws.com/static.fantasydata.com/logos/ncaa/42.png,KENEST,"{'StadiumID': 275, 'Active': True, 'Name': 'KSU Convocation Center', 'Address': None, 'City': 'Kennesaw', 'State': 'GA', 'Zip': None, 'Country': None, 'Capacity': 4800, 'GeoLat': 34.036924, 'GeoLong': -84.580329}"
42,43,SCUP,True,USC Upstate,Spartans,,13.0,15.0,10.0,6.0,60000043,8.0,Big South,https://s3-us-west-2.amazonaws.com/static.fantasydata.com/logos/ncaa/43.png,USCU,"{'StadiumID': 303, 'Active': True, 'Name': 'Hodge Center', 'Address': None, 'City': 'Spartanburg', 'State': 'SC', 'Zip': None, 'Country': None, 'Capacity': 833, 'GeoLat': 34.996696, 'GeoLong': -81.968774}"
43,44,DAY,True,Dayton,Flyers,,20.0,9.0,12.0,4.0,60000044,5.0,Atlantic 10,https://s3-us-west-2.amazonaws.com/static.fantasydata.com/logos/ncaa/44.png,DAYTON,"{'StadiumID': 87, 'Active': True, 'Name': 'University of Dayton Arena', 'Address': None, 'City': 'Dayton', 'State': 'OH', 'Zip': None, 'Country': None, 'Capacity': 13407, 'GeoLat': 39.735556, 'GeoLong': -84.2}"
44,45,VCU,True,VCU,Rams,,20.0,7.0,13.0,3.0,60000045,5.0,Atlantic 10,https://s3-us-west-2.amazonaws.com/static.fantasydata.com/logos/ncaa/45.png,VCU,"{'StadiumID': 26, 'Active': True, 'Name': 'Stuart C. Siegel Center', 'Address': None, 'City': 'Richmond', 'State': 'VA', 'Zip': None, 'Country': None, 'Capacity': 7500, 'GeoLat': 37.552918, 'GeoLong': -77.4529}"
45,46,STJOE,True,Saint Joseph's,Hawks,,10.0,17.0,4.0,12.0,60000046,5.0,Atlantic 10,https://s3-us-west-2.amazonaws.com/static.fantasydata.com/logos/ncaa/46.png,STJOE,"{'StadiumID': 128, 'Active': True, 'Name': 'Hagan Arena', 'Address': None, 'City': 'Philadelphia', 'State': 'PA', 'Zip': None, 'Country': None, 'Capacity': 4200, 'GeoLat': 39.995245, 'GeoLong': -75.234806}"
46,47,STBON,True,St. Bonaventure,Bonnies,,19.0,7.0,11.0,4.0,60000047,5.0,Atlantic 10,https://s3-us-west-2.amazonaws.com/static.fantasydata.com/logos/ncaa/47.png,STBON,"{'StadiumID': 88, 'Active': True, 'Name': 'Reilly Center', 'Address': None, 'City': 'Saint Bonaventure', 'State': 'NY', 'Zip': None, 'Country': None, 'Capacity': 5480, 'GeoLat': 42.079428, 'GeoLong': -78.484998}"
47,48,GEOWS,True,George Washington,Colonials,,11.0,16.0,7.0,8.0,60000048,5.0,Atlantic 10,https://s3-us-west-2.amazonaws.com/static.fantasydata.com/logos/ncaa/48.png,GEOWS,"{'StadiumID': 24, 'Active': True, 'Name': 'Charles E. Smith Center', 'Address': None, 'City': 'Washington', 'State': 'DC', 'Zip': None, 'Country': None, 'Capacity': 4338, 'GeoLat': 38.897755, 'GeoLong': -77.049329}"
48,49,DAVID,True,Davidson,Wildcats,,24.0,4.0,14.0,2.0,60000049,5.0,Atlantic 10,https://s3-us-west-2.amazonaws.com/static.fantasydata.com/logos/ncaa/49.png,DAVID,"{'StadiumID': 22, 'Active': True, 'Name': 'John M. Belk Arena', 'Address': None, 'City': 'Davidson', 'State': 'NC', 'Zip': None, 'Country': None, 'Capacity': 4300, 'GeoLat': 35.499278, 'GeoLong': -80.840521}"
49,50,RI,True,Rhode Island,Rams,,14.0,13.0,5.0,10.0,60000050,5.0,Atlantic 10,https://s3-us-west-2.amazonaws.com/static.fantasydata.com/logos/ncaa/50.png,URI,"{'StadiumID': 25, 'Active': True, 'Name': 'Ryan Center', 'Address': None, 'City': 'Kingston', 'State': 'RI', 'Zip': None, 'Country': None, 'Capacity': 8000, 'GeoLat': 41.4875, 'GeoLong': -71.535556}"
50,51,DUQ,True,Duquesne,Dukes,,6.0,21.0,1.0,14.0,60000051,5.0,Atlantic 10,https://s3-us-west-2.amazonaws.com/static.fantasydata.com/logos/ncaa/51.png,DUQ,"{'StadiumID': 159, 'Active': True, 'Name': 'UPMC Cooper Fieldhouse', 'Address': '600 Forbes Avenue', 'City': 'Pittsburgh', 'State': 'PA', 'Zip': '15282', 'Country': 'USA', 'Capacity': 3500, 'GeoLat': 40.4374, 'GeoLong': -79.9879}"
51,52,RICH,True,Richmond,Spiders,,19.0,10.0,10.0,6.0,60000052,5.0,Atlantic 10,https://s3-us-west-2.amazonaws.com/static.fantasydata.com/logos/ncaa/52.png,RICH,"{'StadiumID': 116, 'Active': True, 'Name': 'Robins Center', 'Address': None, 'City': 'Richmond', 'State': 'VA', 'Zip': None, 'Country': None, 'Capacity': 7201, 'GeoLat': 37.580701, 'GeoLong': -77.538987}"
52,53,FORDM,True,Fordham,Rams,,14.0,14.0,7.0,9.0,60000053,5.0,Atlantic 10,https://s3-us-west-2.amazonaws.com/static.fantasydata.com/logos/ncaa/53.png,FORDHAM,"{'StadiumID': 279, 'Active': True, 'Name': 'Rose Hill Gymnasium', 'Address': None, 'City': 'Bronx', 'State': 'NY', 'Zip': None, 'Country': None, 'Capacity': 3200, 'GeoLat': 40.862148, 'GeoLong': -73.883824}"
53,54,STLOU,True,Saint Louis,Billikens,,19.0,10.0,10.0,6.0,60000054,5.0,Atlantic 10,https://s3-us-west-2.amazonaws.com/static.fantasydata.com/logos/ncaa/54.png,SLU,"{'StadiumID': 50, 'Active': True, 'Name': 'Chaifetz Arena', 'Address': None, 'City': 'St. Louis', 'State': 'MO', 'Zip': None, 'Country': None, 'Capacity': 10600, 'GeoLat': 38.63246, 'GeoLong': -90.22797}"
54,55,UMASS,True,Massachusetts,Minutemen,,12.0,16.0,5.0,11.0,60000055,5.0,Atlantic 10,https://s3-us-west-2.amazonaws.com/static.fantasydata.com/logos/ncaa/55.png,UMASS,"{'StadiumID': 296, 'Active': True, 'Name': 'William D. Mullins Memorial Center', 'Address': None, 'City': 'Amherst', 'State': 'MA', 'Zip': None, 'Country': None, 'Capacity': 9493, 'GeoLat': 42.389381, 'GeoLong': -72.533439}"
55,56,GMSN,True,George Mason,Patriots,,14.0,13.0,7.0,7.0,60000056,5.0,Atlantic 10,https://s3-us-west-2.amazonaws.com/static.fantasydata.com/logos/ncaa/56.png,GMSN,"{'StadiumID': 121, 'Active': True, 'Name': 'EagleBank Arena', 'Address': None, 'City': 'Fairfax', 'State': 'VA', 'Zip': None, 'Country': None, 'Capacity': 7860, 'GeoLat': 38.827, 'GeoLong': -77.31}"
56,57,LASAL,True,La Salle,Explorers,,8.0,18.0,3.0,13.0,60000057,5.0,Atlantic 10,https://s3-us-west-2.amazonaws.com/static.fantasydata.com/logos/ncaa/57.png,LASALLE,"{'StadiumID': 154, 'Active': True, 'Name': 'Tom Gola Arena', 'Address': None, 'City': 'Philadelphia', 'State': 'PA', 'Zip': None, 'Country': None, 'Capacity': 3400, 'GeoLat': 40.039993, 'GeoLong': -75.15654}"
57,58,VILL,True,Villanova,Wildcats,11.0,21.0,7.0,14.0,4.0,60000058,6.0,Big East,https://s3-us-west-2.amazonaws.com/static.fantasydata.com/logos/ncaa/58.png,VILL,"{'StadiumID': 7, 'Active': True, 'Name': 'Finneran Pavilion', 'Address': None, 'City': 'Villanova', 'State': 'PA', 'Zip': None, 'Country': None, 'Capacity': 6501, 'GeoLat': 40.034072, 'GeoLong': -75.336553}"
58,59,XAV,True,Xavier,Musketeers,,17.0,11.0,7.0,10.0,60000059,6.0,Big East,https://s3-us-west-2.amazonaws.com/static.fantasydata.com/logos/ncaa/59.png,XAV,"{'StadiumID': 66, 'Active': True, 'Name': 'Cintas Center', 'Address': None, 'City': 'Cincinnati', 'State': 'OH', 'Zip': None, 'Country': None, 'Capacity': 10224, 'GeoLat': 39.150148, 'GeoLong': -84.471881}"
59,60,SETON,True,Seton Hall,Pirates,,18.0,9.0,9.0,8.0,60000060,6.0,Big East,https://s3-us-west-2.amazonaws.com/static.fantasydata.com/logos/ncaa/60.png,SETON,"{'StadiumID': 326, 'Active': True, 'Name': 'Prudential Center', 'Address': None, 'City': 'Newark', 'State': 'NJ', 'Zip': None, 'Country': None, 'Capacity': 18711, 'GeoLat': 40.733611, 'GeoLong': -74.171111}"
60,61,CREIGH,True,Creighton,Bluejays,,19.0,9.0,11.0,6.0,60000061,6.0,Big East,https://s3-us-west-2.amazonaws.com/static.fantasydata.com/logos/ncaa/61.png,CREIGH,"{'StadiumID': 65, 'Active': True, 'Name': 'CHI Health Center Omaha', 'Address': None, 'City': 'Omaha', 'State': 'NE', 'Zip': None, 'Country': None, 'Capacity': 17352, 'GeoLat': 41.263, 'GeoLong': -95.928}"
61,62,GEORGE,True,Georgetown,Hoyas,,6.0,22.0,0.0,17.0,60000062,6.0,Big East,https://s3-us-west-2.amazonaws.com/static.fantasydata.com/logos/ncaa/62.png,GEORGE,"{'StadiumID': 67, 'Active': True, 'Name': 'Capital One Arena', 'Address': None, 'City': 'Washington', 'State': 'DC', 'Zip': None, 'Country': None, 'Capacity': 20600, 'GeoLat': 38.898056, 'GeoLong': -77.020833}"
62,63,PROV,True,Providence,Friars,9.0,24.0,3.0,14.0,2.0,60000063,6.0,Big East,https://s3-us-west-2.amazonaws.com/static.fantasydata.com/logos/ncaa/63.png,PROV,"{'StadiumID': 17, 'Active': True, 'Name': ""Dunkin' Donuts Center"", 'Address': None, 'City': 'Providence', 'State': 'RI', 'Zip': None, 'Country': None, 'Capacity': 12410, 'GeoLat': 41.823611, 'GeoLong': -71.418333}"
63,64,BUTL,True,Butler,Bulldogs,,13.0,17.0,6.0,13.0,60000064,6.0,Big East,https://s3-us-west-2.amazonaws.com/static.fantasydata.com/logos/ncaa/64.png,BUTLER,"{'StadiumID': 161, 'Active': True, 'Name': 'Hinkle Fieldhouse', 'Address': None, 'City': 'Indianapolis', 'State': 'IN', 'Zip': None, 'Country': None, 'Capacity': 9100, 'GeoLat': 39.843611, 'GeoLong': -86.167222}"
64,65,MARQ,True,Marquette,Golden Eagles,,18.0,10.0,10.0,7.0,60000065,6.0,Big East,https://s3-us-west-2.amazonaws.com/static.fantasydata.com/logos/ncaa/65.png,MARQ,"{'StadiumID': 74, 'Active': True, 'Name': 'Fiserv Forum', 'Address': None, 'City': 'Milwaukee', 'State': 'WI', 'Zip': None, 'Country': None, 'Capacity': 17341, 'GeoLat': 43.045028, 'GeoLong': -87.918167}"
65,66,DEPAUL,True,DePaul,Blue Demons,,14.0,14.0,5.0,13.0,60000066,6.0,Big East,https://s3-us-west-2.amazonaws.com/static.fantasydata.com/logos/ncaa/66.png,DEPAUL,"{'StadiumID': 93, 'Active': True, 'Name': 'Wintrust Arena', 'Address': None, 'City': 'Chicago', 'State': 'IL', 'Zip': None, 'Country': None, 'Capacity': 10387, 'GeoLat': 41.853611, 'GeoLong': -87.621389}"
66,67,STJOHN,True,St. John's,Red Storm,,15.0,13.0,7.0,10.0,60000067,6.0,Big East,https://s3-us-west-2.amazonaws.com/static.fantasydata.com/logos/ncaa/67.png,STJOHN,"{'StadiumID': 19, 'Active': True, 'Name': 'Carnesecca Arena', 'Address': None, 'City': 'Queens', 'State': 'NY', 'Zip': None, 'Country': None, 'Capacity': 5602, 'GeoLat': 40.724167, 'GeoLong': -73.794444}"
67,68,MONT,True,Montana,Grizzlies,,18.0,11.0,11.0,7.0,60000068,7.0,Big Sky,https://s3-us-west-2.amazonaws.com/static.fantasydata.com/logos/ncaa/68.png,MONT,"{'StadiumID': 136, 'Active': True, 'Name': 'Dahlberg Arena', 'Address': None, 'City': 'Missoula', 'State': 'MT', 'Zip': None, 'Country': None, 'Capacity': 7200, 'GeoLat': 46.864, 'GeoLong': -113.983}"
68,69,WEBST,True,Weber State,Wildcats,,20.0,10.0,13.0,6.0,60000069,7.0,Big Sky,https://s3-us-west-2.amazonaws.com/static.fantasydata.com/logos/ncaa/69.png,WEBST,"{'StadiumID': 344, 'Active': True, 'Name': 'Dee Events Center', 'Address': None, 'City': 'Ogden', 'State': 'UT', 'Zip': None, 'Country': None, 'Capacity': 11500, 'GeoLat': 41.1825, 'GeoLong': -111.945}"
69,70,EWASH,True,Eastern Washington,Eagles,,15.0,14.0,9.0,9.0,60000070,7.0,Big Sky,https://s3-us-west-2.amazonaws.com/static.fantasydata.com/logos/ncaa/70.png,EWU,"{'StadiumID': 392, 'Active': True, 'Name': 'Reese Court', 'Address': None, 'City': 'Cheney', 'State': 'WA', 'Zip': None, 'Country': None, 'Capacity': 6000, 'GeoLat': 47.4914, 'GeoLong': -117.5892}"
70,71,NDAK,True,North Dakota,Fighting Hawks,,6.0,25.0,2.0,16.0,60000071,30.0,Summit,https://s3-us-west-2.amazonaws.com/static.fantasydata.com/logos/ncaa/71.png,UND,"{'StadiumID': 336, 'Active': True, 'Name': 'Betty Engelstad Sioux Center', 'Address': None, 'City': 'Grand Forks', 'State': 'ND', 'Zip': None, 'Country': None, 'Capacity': 3140, 'GeoLat': 47.927641, 'GeoLong': -97.071438}"
71,72,IDHST,True,Idaho State,Bengals,,7.0,21.0,5.0,14.0,60000072,7.0,Big Sky,https://s3-us-west-2.amazonaws.com/static.fantasydata.com/logos/ncaa/72.png,IDST,"{'StadiumID': 226, 'Active': True, 'Name': 'Reed Gym', 'Address': None, 'City': 'Pocatello', 'State': 'ID', 'Zip': None, 'Country': None, 'Capacity': 3040, 'GeoLat': 42.8645, 'GeoLong': -112.429}"
72,73,IDAHO,True,Idaho,Vandals,,8.0,20.0,5.0,13.0,60000073,7.0,Big Sky,https://s3-us-west-2.amazonaws.com/static.fantasydata.com/logos/ncaa/73.png,IDAHO,"{'StadiumID': 525, 'Active': True, 'Name': 'ICCU Arena', 'Address': None, 'City': 'Moscow', 'State': 'ID', 'Zip': None, 'Country': None, 'Capacity': 4200, 'GeoLat': None, 'GeoLong': None}"
73,74,MONST,True,Montana State,Bobcats,,21.0,7.0,13.0,4.0,60000074,7.0,Big Sky,https://s3-us-west-2.amazonaws.com/static.fantasydata.com/logos/ncaa/74.png,MONST,"{'StadiumID': 73, 'Active': True, 'Name': 'Brick Breeden Fieldhouse ', 'Address': None, 'City': 'Bozeman', 'State': 'MT', 'Zip': None, 'Country': None, 'Capacity': 6772, 'GeoLat': 45.6633, 'GeoLong': -111.0506}"
74,75,NCOL,True,Northern Colorado,Bears,,17.0,13.0,12.0,6.0,60000075,7.0,Big Sky,https://s3-us-west-2.amazonaws.com/static.fantasydata.com/logos/ncaa/75.png,UNCO,"{'StadiumID': 207, 'Active': True, 'Name': 'Bank of Colorado Arena', 'Address': None, 'City': 'Greeley', 'State': 'CO', 'Zip': None, 'Country': None, 'Capacity': 2950, 'GeoLat': 40.402251, 'GeoLong': -104.703097}"
75,76,PORTST,True,Portland State,Vikings,,11.0,15.0,9.0,9.0,60000076,7.0,Big Sky,https://s3-us-west-2.amazonaws.com/static.fantasydata.com/logos/ncaa/76.png,PORTST,"{'StadiumID': 174, 'Active': True, 'Name': 'Viking Pavilion', 'Address': None, 'City': 'Portland', 'State': 'OR', 'Zip': None, 'Country': None, 'Capacity': 3094, 'GeoLat': 45.510987, 'GeoLong': -122.687471}"
76,77,SACST,True,Sacramento State,Hornets,,9.0,16.0,5.0,13.0,60000077,7.0,Big Sky,https://s3-us-west-2.amazonaws.com/static.fantasydata.com/logos/ncaa/77.png,SACST,"{'StadiumID': 278, 'Active': True, 'Name': 'The Hornets Nest', 'Address': None, 'City': 'Sacramento', 'State': 'CA', 'Zip': None, 'Country': None, 'Capacity': 1012, 'GeoLat': 38.561903, 'GeoLong': -121.426878}"
77,78,SUTAH,True,Southern Utah,Thunderbirds,,18.0,9.0,12.0,5.0,60000078,7.0,Big Sky,https://s3-us-west-2.amazonaws.com/static.fantasydata.com/logos/ncaa/78.png,SUTAH,"{'StadiumID': 377, 'Active': True, 'Name': 'America First Events Center', 'Address': None, 'City': 'Cedar City', 'State': 'UT', 'Zip': None, 'Country': None, 'Capacity': 5300, 'GeoLat': 37.675556, 'GeoLong': -113.073056}"
78,79,NARZ,True,Northern Arizona,Lumberjacks,,9.0,20.0,5.0,13.0,60000079,7.0,Big Sky,https://s3-us-west-2.amazonaws.com/static.fantasydata.com/logos/ncaa/79.png,NARZ,"{'StadiumID': 151, 'Active': True, 'Name': 'J. Lawrence Walkup Skydome', 'Address': None, 'City': 'Flagstaff', 'State': 'AZ', 'Zip': None, 'Country': None, 'Capacity': 3300, 'GeoLat': 35.1805, 'GeoLong': -111.6525}"
79,80,NCASHE,True,UNC Asheville,Bulldogs,,16.0,13.0,8.0,8.0,60000080,8.0,Big South,https://s3-us-west-2.amazonaws.com/static.fantasydata.com/logos/ncaa/80.png,NCASHE,"{'StadiumID': 283, 'Active': True, 'Name': 'Kimmel Arena', 'Address': None, 'City': 'Asheville', 'State': 'NC', 'Zip': None, 'Country': None, 'Capacity': 3200, 'GeoLat': 35.618, 'GeoLong': -82.568}"
80,81,COAST,True,Coastal Carolina,Chanticleers,,16.0,12.0,8.0,8.0,60000081,31.0,Sun Belt,https://s3-us-west-2.amazonaws.com/static.fantasydata.com/logos/ncaa/81.png,COAST,"{'StadiumID': 220, 'Active': True, 'Name': 'The HTC Center', 'Address': None, 'City': 'Conway', 'State': 'SC', 'Zip': None, 'Country': None, 'Capacity': 3212, 'GeoLat': 33.799167, 'GeoLong': -79.015556}"
81,82,WINTH,True,Winthrop,Eagles,,21.0,8.0,14.0,2.0,60000082,8.0,Big South,https://s3-us-west-2.amazonaws.com/static.fantasydata.com/logos/ncaa/82.png,WINTH,"{'StadiumID': 398, 'Active': True, 'Name': 'Winthrop Coliseum', 'Address': None, 'City': 'Rock Hill', 'State': 'SC', 'Zip': None, 'Country': None, 'Capacity': 6100, 'GeoLat': 34.947911, 'GeoLong': -81.014972}"
82,83,GARDWB,True,Gardner-Webb,Runnin' Bulldogs,,17.0,12.0,11.0,5.0,60000083,8.0,Big South,https://s3-us-west-2.amazonaws.com/static.fantasydata.com/logos/ncaa/83.png,GARDWB,"{'StadiumID': 334, 'Active': True, 'Name': 'Paul Porter Arena', 'Address': None, 'City': 'Boiling Springs', 'State': 'NC', 'Zip': None, 'Country': None, 'Capacity': 3500, 'GeoLat': 35.246538, 'GeoLong': -81.669518}"
83,84,LIBRTY,True,Liberty,Flames,,21.0,10.0,12.0,4.0,60000084,4.0,Atlantic Sun,https://s3-us-west-2.amazonaws.com/static.fantasydata.com/logos/ncaa/84.png,LIBERTY,"{'StadiumID': 493, 'Active': True, 'Name': 'Liberty Arena', 'Address': None, 'City': 'Lynchburg', 'State': 'VA', 'Zip': None, 'Country': None, 'Capacity': 4000, 'GeoLat': 37.349356, 'GeoLong': -79.180225}"
84,85,HPNT,True,High Point,Panthers,,13.0,17.0,7.0,9.0,60000085,8.0,Big South,https://s3-us-west-2.amazonaws.com/static.fantasydata.com/logos/ncaa/85.png,HIGHPT,"{'StadiumID': 494, 'Active': True, 'Name': 'Nido and Mariana Qubein Arena', 'Address': None, 'City': 'High Point', 'State': 'NC', 'Zip': None, 'Country': None, 'Capacity': 4500, 'GeoLat': 35.978847, 'GeoLong': -79.996429}"
85,86,RADF,True,Radford,Highlanders,,11.0,17.0,7.0,9.0,60000086,8.0,Big South,https://s3-us-west-2.amazonaws.com/static.fantasydata.com/logos/ncaa/86.png,RADF,"{'StadiumID': 135, 'Active': True, 'Name': 'Donald N. Dedmon Center', 'Address': None, 'City': 'Radford', 'State': 'VA', 'Zip': None, 'Country': None, 'Capacity': 3215, 'GeoLat': 37.1386, 'GeoLong': -80.541769}"
86,87,LONGWD,True,Longwood,Lancers,,23.0,6.0,15.0,1.0,60000087,8.0,Big South,https://s3-us-west-2.amazonaws.com/static.fantasydata.com/logos/ncaa/87.png,LONGWD,"{'StadiumID': 335, 'Active': True, 'Name': 'Willett Hall', 'Address': None, 'City': 'Farmville', 'State': 'VA', 'Zip': None, 'Country': None, 'Capacity': 1900, 'GeoLat': 37.2975, 'GeoLong': -78.3955}"
87,88,CHSOU,True,Charleston Southern,Buccaneers,,5.0,24.0,1.0,15.0,60000088,8.0,Big South,https://s3-us-west-2.amazonaws.com/static.fantasydata.com/logos/ncaa/88.png,CHSOU,"{'StadiumID': 202, 'Active': True, 'Name': 'CSU Field House', 'Address': None, 'City': 'Charleston', 'State': 'SC', 'Zip': None, 'Country': None, 'Capacity': 881, 'GeoLat': 32.980822, 'GeoLong': -80.067125}"
88,89,PRESB,True,Presbyterian,Blue Hose,,12.0,19.0,4.0,12.0,60000089,8.0,Big South,https://s3-us-west-2.amazonaws.com/static.fantasydata.com/logos/ncaa/89.png,PRESB,"{'StadiumID': 301, 'Active': True, 'Name': 'Ross E. Templeton P.E. Center', 'Address': None, 'City': 'Clinton', 'State': 'SC', 'Zip': None, 'Country': None, 'Capacity': 2300, 'GeoLat': 34.465, 'GeoLong': -81.869}"
89,90,CAMP,True,Campbell,Fighting Camels,,15.0,12.0,8.0,8.0,60000090,8.0,Big South,https://s3-us-west-2.amazonaws.com/static.fantasydata.com/logos/ncaa/90.png,CAMP,"{'StadiumID': 42, 'Active': True, 'Name': 'Pope Convocation Center', 'Address': None, 'City': 'Buies Creek', 'State': 'NC', 'Zip': None, 'Country': None, 'Capacity': 3095, 'GeoLat': 35.407905, 'GeoLong': 78.736696}"
90,91,IOWA,True,Iowa,Hawkeyes,24.0,21.0,8.0,11.0,7.0,60000091,9.0,Big Ten,https://s3-us-west-2.amazonaws.com/static.fantasydata.com/logos/ncaa/91.png,IOWA,"{'StadiumID': 99, 'Active': True, 'Name': 'Carver-Hawkeye Arena', 'Address': None, 'City': 'Iowa City', 'State': 'IA', 'Zip': None, 'Country': None, 'Capacity': 15000, 'GeoLat': 41.663611, 'GeoLong': -91.554444}"
91,92,MARY,True,Maryland,Terrapins,,14.0,15.0,6.0,12.0,60000092,9.0,Big Ten,https://s3-us-west-2.amazonaws.com/static.fantasydata.com/logos/ncaa/92.png,MARY,"{'StadiumID': 41, 'Active': True, 'Name': 'XFINITY Center', 'Address': None, 'City': 'College Park', 'State': 'MD', 'Zip': None, 'Country': None, 'Capacity': 17950, 'GeoLat': 38.995417, 'GeoLong': -76.941556}"
92,93,IND,True,Indiana,Hoosiers,,18.0,10.0,9.0,9.0,60000093,9.0,Big Ten,https://s3-us-west-2.amazonaws.com/static.fantasydata.com/logos/ncaa/93.png,IU,"{'StadiumID': 130, 'Active': True, 'Name': 'Simon Skjodt Assembly Hall', 'Address': '1001 E 17th Street', 'City': 'Bloomington', 'State': 'IN', 'Zip': '47408', 'Country': 'USA', 'Capacity': 17472, 'GeoLat': 39.180833, 'GeoLong': -86.522222}"
93,94,PUR,True,Purdue,Boilermakers,8.0,24.0,5.0,13.0,5.0,60000094,9.0,Big Ten,https://s3-us-west-2.amazonaws.com/static.fantasydata.com/logos/ncaa/94.png,PUR,"{'StadiumID': 14, 'Active': True, 'Name': 'Mackey Arena', 'Address': None, 'City': 'West Lafayette', 'State': 'IN', 'Zip': None, 'Country': None, 'Capacity': 14804, 'GeoLat': 40.433322, 'GeoLong': -86.916144}"
94,95,MICH,True,Michigan,Wolverines,,15.0,12.0,9.0,8.0,60000095,9.0,Big Ten,https://s3-us-west-2.amazonaws.com/static.fantasydata.com/logos/ncaa/95.png,MICH,"{'StadiumID': 12, 'Active': True, 'Name': 'Crisler Center', 'Address': None, 'City': 'Ann Arbor', 'State': 'MI', 'Zip': None, 'Country': None, 'Capacity': 12707, 'GeoLat': 42.265037, 'GeoLong': -83.746768}"
95,96,WISC,True,Wisconsin,Badgers,10.0,23.0,5.0,14.0,4.0,60000096,9.0,Big Ten,https://s3-us-west-2.amazonaws.com/static.fantasydata.com/logos/ncaa/96.png,WISC,"{'StadiumID': 61, 'Active': True, 'Name': 'Kohl Center', 'Address': None, 'City': 'Madison', 'State': 'WI', 'Zip': None, 'Country': None, 'Capacity': 17142, 'GeoLat': 43.06942, 'GeoLong': -89.396972}"
96,97,MST,True,Michigan State,Spartans,,19.0,9.0,10.0,7.0,60000097,9.0,Big Ten,https://s3-us-west-2.amazonaws.com/static.fantasydata.com/logos/ncaa/97.png,MSU,"{'StadiumID': 175, 'Active': True, 'Name': 'Breslin Center', 'Address': None, 'City': 'East Lansing', 'State': 'MI', 'Zip': None, 'Country': None, 'Capacity': 14797, 'GeoLat': 42.728227, 'GeoLong': -84.492396}"
97,98,OHIOST,True,Ohio State,Buckeyes,23.0,18.0,8.0,11.0,6.0,60000098,9.0,Big Ten,https://s3-us-west-2.amazonaws.com/static.fantasydata.com/logos/ncaa/98.png,OSU,"{'StadiumID': 233, 'Active': True, 'Name': 'Value City Arena', 'Address': None, 'City': 'Columbus', 'State': 'OH', 'Zip': None, 'Country': None, 'Capacity': 19049, 'GeoLat': 40.007511, 'GeoLong': -83.025102}"
98,99,NEBR,True,Nebraska,Cornhuskers,,8.0,21.0,2.0,16.0,60000099,9.0,Big Ten,https://s3-us-west-2.amazonaws.com/static.fantasydata.com/logos/ncaa/99.png,NEB,"{'StadiumID': 60, 'Active': True, 'Name': 'Pinnacle Bank Arena', 'Address': None, 'City': 'Lincoln', 'State': 'NE', 'Zip': None, 'Country': None, 'Capacity': 15000, 'GeoLat': 40.817778, 'GeoLong': -96.713333}"
99,100,NW,True,Northwestern,Wildcats,,13.0,15.0,6.0,13.0,60000100,9.0,Big Ten,https://s3-us-west-2.amazonaws.com/static.fantasydata.com/logos/ncaa/100.png,NWU,"{'StadiumID': 100, 'Active': True, 'Name': 'Welsh-Ryan Arena', 'Address': None, 'City': 'Evanston', 'State': 'IL', 'Zip': None, 'Country': None, 'Capacity': 7039, 'GeoLat': 42.066944, 'GeoLong': -87.692778}"
100,101,PENNST,True,Penn State,Nittany Lions,,12.0,14.0,7.0,11.0,60000101,9.0,Big Ten,https://s3-us-west-2.amazonaws.com/static.fantasydata.com/logos/ncaa/101.png,PSU,"{'StadiumID': 127, 'Active': True, 'Name': 'Bryce Jordan Center', 'Address': None, 'City': 'University Park', 'State': 'PA', 'Zip': None, 'Country': None, 'Capacity': 15104, 'GeoLat': 40.808889, 'GeoLong': -77.855833}"
101,102,ILL,True,Illinois,Fighting Illini,20.0,20.0,8.0,13.0,5.0,60000102,9.0,Big Ten,https://s3-us-west-2.amazonaws.com/static.fantasydata.com/logos/ncaa/102.png,ILL,"{'StadiumID': 98, 'Active': True, 'Name': 'State Farm Center', 'Address': None, 'City': 'Champaign', 'State': 'IL', 'Zip': None, 'Country': None, 'Capacity': 15544, 'GeoLat': 40.096259, 'GeoLong': -88.235956}"
102,103,RUTGER,True,Rutgers,Scarlet Knights,,16.0,12.0,10.0,8.0,60000103,9.0,Big Ten,https://s3-us-west-2.amazonaws.com/static.fantasydata.com/logos/ncaa/103.png,RUTGERS,"{'StadiumID': 114, 'Active': True, 'Name': ""Jersey Mike's Arena"", 'Address': None, 'City': 'Piscataway', 'State': 'NJ', 'Zip': None, 'Country': None, 'Capacity': 8000, 'GeoLat': 40.525278, 'GeoLong': -74.441111}"
103,104,MINNST,True,Minnesota,Golden Gophers,,13.0,14.0,4.0,14.0,60000104,9.0,Big Ten,https://s3-us-west-2.amazonaws.com/static.fantasydata.com/logos/ncaa/104.png,MINN,"{'StadiumID': 59, 'Active': True, 'Name': 'Williams Arena', 'Address': None, 'City': 'Minneapolis', 'State': 'MN', 'Zip': None, 'Country': None, 'Capacity': 14625, 'GeoLat': 44.976944, 'GeoLong': -93.228333}"
104,105,OKL,True,Oklahoma,Sooners,,15.0,14.0,5.0,11.0,60000105,10.0,Big 12,https://s3-us-west-2.amazonaws.com/static.fantasydata.com/logos/ncaa/105.png,OU,"{'StadiumID': 294, 'Active': True, 'Name': 'Lloyd Noble Center', 'Address': None, 'City': 'Norman', 'State': 'OK', 'Zip': None, 'Country': None, 'Capacity': 11562, 'GeoLat': 35.187438, 'GeoLong': -97.444504}"
105,106,KAN,True,Kansas,Jayhawks,6.0,23.0,5.0,12.0,3.0,60000106,10.0,Big 12,https://s3-us-west-2.amazonaws.com/static.fantasydata.com/logos/ncaa/106.png,KANSAS,"{'StadiumID': 184, 'Active': True, 'Name': 'Allen Fieldhouse', 'Address': None, 'City': 'Lawrence', 'State': 'KS', 'Zip': None, 'Country': None, 'Capacity': 16300, 'GeoLat': 38.954306, 'GeoLong': -95.252394}"
106,107,WVIR,True,West Virginia,Mountaineers,,14.0,15.0,3.0,13.0,60000107,10.0,Big 12,https://s3-us-west-2.amazonaws.com/static.fantasydata.com/logos/ncaa/107.png,WVU,"{'StadiumID': 106, 'Active': True, 'Name': 'WVU Coliseum', 'Address': None, 'City': 'Morgantown', 'State': 'WV', 'Zip': None, 'Country': None, 'Capacity': 14000, 'GeoLat': 39.649167, 'GeoLong': -79.981111}"
107,108,BAYL,True,Baylor,Bears,3.0,25.0,5.0,13.0,4.0,60000108,10.0,Big 12,https://s3-us-west-2.amazonaws.com/static.fantasydata.com/logos/ncaa/108.png,BAYLOR,"{'StadiumID': 76, 'Active': True, 'Name': 'Ferrell Center', 'Address': None, 'City': 'Waco', 'State': 'TX', 'Zip': None, 'Country': None, 'Capacity': 10284, 'GeoLat': 31.547903, 'GeoLong': -97.105969}"
108,109,TX,True,Texas,Longhorns,21.0,21.0,9.0,10.0,7.0,60000109,10.0,Big 12,https://s3-us-west-2.amazonaws.com/static.fantasydata.com/logos/ncaa/109.png,UT,"{'StadiumID': 55, 'Active': True, 'Name': 'Frank Erwin Center', 'Address': None, 'City': 'Austin', 'State': 'TX', 'Zip': None, 'Country': None, 'Capacity': 16540, 'GeoLat': 30.276958, 'GeoLong': -97.732216}"
109,110,IOWAST,True,Iowa State,Cyclones,,20.0,9.0,7.0,9.0,60000110,10.0,Big 12,https://s3-us-west-2.amazonaws.com/static.fantasydata.com/logos/ncaa/110.png,IAST,"{'StadiumID': 56, 'Active': True, 'Name': 'Hilton Coliseum', 'Address': None, 'City': 'Ames', 'State': 'IA', 'Zip': None, 'Country': None, 'Capacity': 14356, 'GeoLat': 42.02101, 'GeoLong': -93.634763}"
110,111,TXTECH,True,Texas Tech,Red Raiders,12.0,23.0,7.0,12.0,5.0,60000111,10.0,Big 12,https://s3-us-west-2.amazonaws.com/static.fantasydata.com/logos/ncaa/111.png,TTU,"{'StadiumID': 43, 'Active': True, 'Name': 'United Supermarkets Arena', 'Address': None, 'City': 'Lubbock', 'State': 'TX', 'Zip': None, 'Country': None, 'Capacity': 15098, 'GeoLat': 33.581261, 'GeoLong': -101.886636}"
111,112,KANST,True,Kansas State,Wildcats,,14.0,15.0,6.0,11.0,60000112,10.0,Big 12,https://s3-us-west-2.amazonaws.com/static.fantasydata.com/logos/ncaa/112.png,KSU,"{'StadiumID': 105, 'Active': True, 'Name': 'Bramlage Coliseum', 'Address': None, 'City': 'Manhattan', 'State': 'KS', 'Zip': None, 'Country': None, 'Capacity': 12528, 'GeoLat': 39.200361, 'GeoLong': -96.593833}"
112,113,OKST,True,Oklahoma State,Cowboys,,13.0,15.0,6.0,10.0,60000113,10.0,Big 12,https://s3-us-west-2.amazonaws.com/static.fantasydata.com/logos/ncaa/113.png,OKST,"{'StadiumID': 216, 'Active': True, 'Name': 'Gallagher-Iba Arena', 'Address': None, 'City': 'Stillwater', 'State': 'OK', 'Zip': None, 'Country': None, 'Capacity': 13611, 'GeoLat': 36.125833, 'GeoLong': -97.065}"
113,114,TCU,True,TCU,Horned Frogs,,18.0,9.0,7.0,8.0,60000114,10.0,Big 12,https://s3-us-west-2.amazonaws.com/static.fantasydata.com/logos/ncaa/114.png,TCU,"{'StadiumID': 85, 'Active': True, 'Name': 'Ed and Rae Schollmaier Arena', 'Address': None, 'City': 'Fort Worth', 'State': 'TX', 'Zip': None, 'Country': None, 'Capacity': 6700, 'GeoLat': 32.708774, 'GeoLong': -97.36673}"
114,115,HAWAII,True,Hawaii,Rainbow Warriors,,15.0,9.0,9.0,4.0,60000115,11.0,Big West,https://s3-us-west-2.amazonaws.com/static.fantasydata.com/logos/ncaa/115.png,HAWAII,"{'StadiumID': 142, 'Active': True, 'Name': 'Stan Sheriff Center', 'Address': None, 'City': 'Honolulu', 'State': 'HI', 'Zip': None, 'Country': None, 'Capacity': 10300, 'GeoLat': 21.294292, 'GeoLong': -157.818875}"
115,116,UCIRV,True,UC Irvine,Anteaters,,14.0,8.0,8.0,4.0,60000116,11.0,Big West,https://s3-us-west-2.amazonaws.com/static.fantasydata.com/logos/ncaa/116.png,UCI,"{'StadiumID': 81, 'Active': True, 'Name': 'Bren Events Center', 'Address': None, 'City': 'Irvine', 'State': 'CA', 'Zip': None, 'Country': None, 'Capacity': 5000, 'GeoLat': 33.649167, 'GeoLong': -117.846944}"
116,117,LBST,True,Long Beach State,Beach,,16.0,11.0,10.0,3.0,60000117,11.0,Big West,https://s3-us-west-2.amazonaws.com/static.fantasydata.com/logos/ncaa/117.png,LBST,"{'StadiumID': 284, 'Active': True, 'Name': 'Walter Pyramid', 'Address': None, 'City': 'Long Beach', 'State': 'CA', 'Zip': None, 'Country': None, 'Capacity': 4200, 'GeoLat': 33.787222, 'GeoLong': -118.114167}"
117,118,UCDV,True,UC Davis,Aggies,,12.0,8.0,5.0,4.0,60000118,11.0,Big West,https://s3-us-west-2.amazonaws.com/static.fantasydata.com/logos/ncaa/118.png,UCDV,"{'StadiumID': 80, 'Active': True, 'Name': 'The Pavilion (UC Davis)', 'Address': None, 'City': 'Davis', 'State': 'CA', 'Zip': None, 'Country': None, 'Capacity': 5931, 'GeoLat': 38.541667, 'GeoLong': -121.759444}"
118,119,USCB,True,UC Santa Barbara,Gauchos,,14.0,10.0,6.0,5.0,60000119,11.0,Big West,https://s3-us-west-2.amazonaws.com/static.fantasydata.com/logos/ncaa/119.png,USCB,"{'StadiumID': 318, 'Active': True, 'Name': 'The Thunderdome', 'Address': None, 'City': 'Santa Barbara', 'State': 'CA', 'Zip': None, 'Country': None, 'Capacity': 6000, 'GeoLat': 34.413792, 'GeoLong': -119.851147}"
119,120,UCRVS,True,UC Riverside,Highlanders,,15.0,10.0,8.0,5.0,60000120,11.0,Big West,https://s3-us-west-2.amazonaws.com/static.fantasydata.com/logos/ncaa/120.png,UCRVS,"{'StadiumID': 319, 'Active': True, 'Name': 'SRC Arena', 'Address': None, 'City': 'Riverside', 'State': 'CA', 'Zip': None, 'Country': None, 'Capacity': 3168, 'GeoLat': 33.9789, 'GeoLong': -117.32813}"
120,121,CSUNR,True,CSUN,Matadors,,7.0,20.0,3.0,11.0,60000121,11.0,Big West,https://s3-us-west-2.amazonaws.com/static.fantasydata.com/logos/ncaa/121.png,CSUNR,"{'StadiumID': 243, 'Active': True, 'Name': 'Matadome', 'Address': None, 'City': 'Northridge', 'State': 'CA', 'Zip': None, 'Country': None, 'Capacity': 2500, 'GeoLat': 34.241974, 'GeoLong': -118.526484}"
121,122,CALPOL,True,Cal Poly,Mustangs,,5.0,20.0,1.0,12.0,60000122,11.0,Big West,https://s3-us-west-2.amazonaws.com/static.fantasydata.com/logos/ncaa/122.png,CALPOL,"{'StadiumID': 366, 'Active': True, 'Name': 'Mott Athletics Center', 'Address': None, 'City': 'San Luis Obispo', 'State': 'CA', 'Zip': None, 'Country': None, 'Capacity': 3032, 'GeoLat': 35.29886, 'GeoLong': -120.65855}"
122,123,CSUFL,True,Cal State Fullerton,Titans,,17.0,9.0,10.0,3.0,60000123,11.0,Big West,https://s3-us-west-2.amazonaws.com/static.fantasydata.com/logos/ncaa/123.png,CSUFL,"{'StadiumID': 260, 'Active': True, 'Name': 'Titan Gym', 'Address': None, 'City': 'Fullerton', 'State': 'CA', 'Zip': None, 'Country': None, 'Capacity': 4000, 'GeoLat': 33.883046, 'GeoLong': -117.88609}"
123,124,NCW,True,UNCW,Seahawks,,21.0,8.0,15.0,3.0,60000124,12.0,Colonial Athletic,https://s3-us-west-2.amazonaws.com/static.fantasydata.com/logos/ncaa/124.png,NCW,"{'StadiumID': 117, 'Active': True, 'Name': 'Trask Coliseum', 'Address': None, 'City': 'Wilmington', 'State': 'NC', 'Zip': None, 'Country': None, 'Capacity': 5200, 'GeoLat': 34.225, 'GeoLong': -77.878333}"
124,125,WM,True,William & Mary,Tribe,,5.0,26.0,4.0,14.0,60000125,12.0,Colonial Athletic,https://s3-us-west-2.amazonaws.com/static.fantasydata.com/logos/ncaa/125.png,WM,"{'StadiumID': 89, 'Active': True, 'Name': 'Kaplan Arena', 'Address': None, 'City': 'Williamsburg', 'State': 'VA', 'Zip': None, 'Country': None, 'Capacity': 8600, 'GeoLat': 37.273472, 'GeoLong': -76.719625}"
125,126,JMAD,True,James Madison,Dukes,,15.0,14.0,6.0,12.0,60000126,12.0,Colonial Athletic,https://s3-us-west-2.amazonaws.com/static.fantasydata.com/logos/ncaa/126.png,JMAD,"{'StadiumID': 486, 'Active': True, 'Name': 'Atlantic Union Bank Center', 'Address': None, 'City': 'Harrisonburg', 'State': 'VA', 'Zip': None, 'Country': None, 'Capacity': 8500, 'GeoLat': 38.430437, 'GeoLong': -78.859574}"
126,127,TOWS,True,Towson,Tigers,,24.0,7.0,15.0,3.0,60000127,12.0,Colonial Athletic,https://s3-us-west-2.amazonaws.com/static.fantasydata.com/logos/ncaa/127.png,TOWS,"{'StadiumID': 286, 'Active': True, 'Name': 'SECU Arena', 'Address': None, 'City': 'Towson', 'State': 'MD', 'Zip': None, 'Country': None, 'Capacity': 5200, 'GeoLat': 39.387361, 'GeoLong': -76.617083}"
127,128,HOFST,True,Hofstra,Pride,,21.0,10.0,13.0,5.0,60000128,12.0,Colonial Athletic,https://s3-us-west-2.amazonaws.com/static.fantasydata.com/logos/ncaa/128.png,HOFST,"{'StadiumID': 212, 'Active': True, 'Name': 'Mack Sports Complex', 'Address': None, 'City': 'Hempstead', 'State': 'NY', 'Zip': None, 'Country': None, 'Capacity': 5023, 'GeoLat': 40.719681, 'GeoLong': -73.596865}"
128,129,CHAR,True,Charleston,Cougars,,16.0,14.0,8.0,10.0,60000129,12.0,Colonial Athletic,https://s3-us-west-2.amazonaws.com/static.fantasydata.com/logos/ncaa/129.png,CHAR,"{'StadiumID': 29, 'Active': True, 'Name': 'TD Arena', 'Address': None, 'City': 'Charleston', 'State': 'SC', 'Zip': None, 'Country': None, 'Capacity': 5100, 'GeoLat': 32.785556, 'GeoLong': -79.934444}"
129,130,ELON,True,Elon,Phoenix,,10.0,21.0,7.0,11.0,60000130,12.0,Colonial Athletic,https://s3-us-west-2.amazonaws.com/static.fantasydata.com/logos/ncaa/130.png,ELON,"{'StadiumID': 329, 'Active': True, 'Name': 'Schar Center', 'Address': None, 'City': 'Elon', 'State': 'NC', 'Zip': None, 'Country': None, 'Capacity': 5100, 'GeoLat': 36.106998, 'GeoLong': -79.509392}"
130,131,NEAST,True,Northeastern,Huskies,,8.0,21.0,2.0,16.0,60000131,12.0,Colonial Athletic,https://s3-us-west-2.amazonaws.com/static.fantasydata.com/logos/ncaa/131.png,NEAST,"{'StadiumID': 57, 'Active': True, 'Name': 'Matthews Arena', 'Address': None, 'City': 'Boston', 'State': 'MA', 'Zip': None, 'Country': None, 'Capacity': 5066, 'GeoLat': 42.341111, 'GeoLong': -71.084444}"
131,132,DREXEL,True,Drexel,Dragons,,15.0,13.0,10.0,8.0,60000132,12.0,Colonial Athletic,https://s3-us-west-2.amazonaws.com/static.fantasydata.com/logos/ncaa/132.png,DREXEL,"{'StadiumID': 247, 'Active': True, 'Name': 'Daskalakis Athletic Center', 'Address': None, 'City': 'Philadelphia', 'State': 'PA', 'Zip': None, 'Country': None, 'Capacity': 2509, 'GeoLat': 39.956389, 'GeoLong': -75.190833}"
132,133,DEL,True,Delaware,Fightin' Blue Hens,,19.0,12.0,10.0,8.0,60000133,12.0,Colonial Athletic,https://s3-us-west-2.amazonaws.com/static.fantasydata.com/logos/ncaa/133.png,DEL,"{'StadiumID': 268, 'Active': True, 'Name': 'Bob Carpenter Center', 'Address': None, 'City': 'Newark', 'State': 'DE', 'Zip': None, 'Country': None, 'Capacity': 5000, 'GeoLat': 39.660556, 'GeoLong': -75.748639}"
133,134,UAB,True,UAB,Blazers,,22.0,7.0,12.0,4.0,60000134,13.0,Conference USA,https://s3-us-west-2.amazonaws.com/static.fantasydata.com/logos/ncaa/134.png,UAB,"{'StadiumID': 64, 'Active': True, 'Name': 'Bartow Arena', 'Address': None, 'City': 'Birmingham', 'State': 'AL', 'Zip': None, 'Country': None, 'Capacity': 8500, 'GeoLat': 33.502164, 'GeoLong': -86.809244}"
134,135,MTNST,True,Middle Tennessee,Blue Raiders,,22.0,7.0,13.0,3.0,60000135,13.0,Conference USA,https://s3-us-west-2.amazonaws.com/static.fantasydata.com/logos/ncaa/135.png,MTNST,"{'StadiumID': 324, 'Active': True, 'Name': 'Murphy Athletic Center', 'Address': None, 'City': 'Murfreesboro', 'State': 'TN', 'Zip': None, 'Country': None, 'Capacity': 11520, 'GeoLat': 35.852467, 'GeoLong': -86.369803}"
135,136,MARSH,True,Marshall,Thundering Herd,,11.0,18.0,4.0,12.0,60000136,13.0,Conference USA,https://s3-us-west-2.amazonaws.com/static.fantasydata.com/logos/ncaa/136.png,MARSH,"{'StadiumID': 179, 'Active': True, 'Name': 'Cam Henderson Center', 'Address': None, 'City': 'Huntington', 'State': 'WV', 'Zip': None, 'Country': None, 'Capacity': 9048, 'GeoLat': 38.424908, 'GeoLong': -82.426575}"
136,137,LOUTCH,True,Louisiana Tech,Bulldogs,,20.0,8.0,11.0,5.0,60000137,13.0,Conference USA,https://s3-us-west-2.amazonaws.com/static.fantasydata.com/logos/ncaa/137.png,LATECH,"{'StadiumID': 180, 'Active': True, 'Name': 'Thomas Assembly Center', 'Address': None, 'City': 'Ruston', 'State': 'LA', 'Zip': None, 'Country': None, 'Capacity': 8000, 'GeoLat': 32.5321, 'GeoLong': -92.6584}"
137,138,OLD,True,Old Dominion,Monarchs,,12.0,17.0,7.0,9.0,60000138,13.0,Conference USA,https://s3-us-west-2.amazonaws.com/static.fantasydata.com/logos/ncaa/138.png,OLD,"{'StadiumID': 37, 'Active': True, 'Name': 'Ted Constant Convocation Center', 'Address': None, 'City': 'Norfolk', 'State': 'VA', 'Zip': None, 'Country': None, 'Capacity': 8472, 'GeoLat': 36.884169, 'GeoLong': -76.301231}"
138,139,UTEP,True,UTEP,Miners,,16.0,12.0,9.0,7.0,60000139,13.0,Conference USA,https://s3-us-west-2.amazonaws.com/static.fantasydata.com/logos/ncaa/139.png,UTEP,"{'StadiumID': 313, 'Active': True, 'Name': 'Don Haskins Center', 'Address': None, 'City': 'El Paso', 'State': 'TX', 'Zip': None, 'Country': None, 'Capacity': 11892, 'GeoLat': 31.777608, 'GeoLong': -106.505718}"
139,140,FLINT,True,FIU,Golden Panthers,,15.0,14.0,5.0,11.0,60000140,13.0,Conference USA,https://s3-us-west-2.amazonaws.com/static.fantasydata.com/logos/ncaa/140.png,FIU,"{'StadiumID': 373, 'Active': True, 'Name': 'Ocean Bank Convocation Center', 'Address': None, 'City': 'Miami', 'State': 'FL', 'Zip': None, 'Country': None, 'Capacity': 5000, 'GeoLat': 25.756667, 'GeoLong': -80.379444}"
140,141,NTX,True,North Texas,Mean Green,,22.0,4.0,15.0,1.0,60000141,13.0,Conference USA,https://s3-us-west-2.amazonaws.com/static.fantasydata.com/logos/ncaa/141.png,NTX,"{'StadiumID': 218, 'Active': True, 'Name': 'UNT Coliseum', 'Address': None, 'City': 'Denton', 'State': 'TX', 'Zip': None, 'Country': None, 'Capacity': 10500, 'GeoLat': 33.208333, 'GeoLong': -97.153889}"
141,142,CHARLT,True,Charlotte,49ers,,15.0,13.0,8.0,8.0,60000142,13.0,Conference USA,https://s3-us-west-2.amazonaws.com/static.fantasydata.com/logos/ncaa/142.png,CHARLT,"{'StadiumID': 36, 'Active': True, 'Name': 'Halton Arena', 'Address': None, 'City': 'Charlotte', 'State': 'NC', 'Zip': None, 'Country': None, 'Capacity': 9105, 'GeoLat': 35.306111, 'GeoLong': -80.734444}"
142,143,SOUMIS,True,Southern Miss,Golden Eagles,,6.0,23.0,1.0,15.0,60000143,13.0,Conference USA,https://s3-us-west-2.amazonaws.com/static.fantasydata.com/logos/ncaa/143.png,SOUMIS,"{'StadiumID': 309, 'Active': True, 'Name': 'Reed Green Coliseum', 'Address': None, 'City': 'Hattiesburg', 'State': 'MS', 'Zip': None, 'Country': None, 'Capacity': 8095, 'GeoLat': 31.330833, 'GeoLong': -89.337778}"
143,144,WKENT,True,Western Kentucky,Hilltoppers,,17.0,12.0,9.0,7.0,60000144,13.0,Conference USA,https://s3-us-west-2.amazonaws.com/static.fantasydata.com/logos/ncaa/144.png,WKENT,"{'StadiumID': 165, 'Active': True, 'Name': 'E. A. Diddle Arena', 'Address': None, 'City': 'Bowling Green', 'State': 'KY', 'Zip': None, 'Country': None, 'Capacity': 7523, 'GeoLat': 36.985833, 'GeoLong': -86.4575}"
144,145,FLATL,True,Florida Atlantic,Owls,,16.0,13.0,9.0,7.0,60000145,13.0,Conference USA,https://s3-us-west-2.amazonaws.com/static.fantasydata.com/logos/ncaa/145.png,FAU,"{'StadiumID': 281, 'Active': True, 'Name': 'FAU Arena', 'Address': None, 'City': 'Boca Raton', 'State': 'FL', 'Zip': None, 'Country': None, 'Capacity': 2500, 'GeoLat': 26.372222, 'GeoLong': -80.109167}"
145,146,RICE,True,Rice,Owls,,15.0,13.0,7.0,9.0,60000146,13.0,Conference USA,https://s3-us-west-2.amazonaws.com/static.fantasydata.com/logos/ncaa/146.png,RICE,"{'StadiumID': 190, 'Active': True, 'Name': 'Tudor Fieldhouse', 'Address': None, 'City': 'Houston', 'State': 'TX', 'Zip': None, 'Country': None, 'Capacity': 5750, 'GeoLat': 29.715102, 'GeoLong': -95.403895}"
146,147,UTSA,True,UTSA,Roadrunners,,9.0,20.0,2.0,14.0,60000147,13.0,Conference USA,https://s3-us-west-2.amazonaws.com/static.fantasydata.com/logos/ncaa/147.png,UTSA,"{'StadiumID': 193, 'Active': True, 'Name': 'UTSA Convocation Center', 'Address': None, 'City': 'San Antonio', 'State': 'TX', 'Zip': None, 'Country': None, 'Capacity': 2650, 'GeoLat': 29.582222, 'GeoLong': -98.621389}"
147,148,VALP,True,Valparaiso,Beacons,,13.0,17.0,6.0,12.0,60000148,20.0,Missouri Valley,https://s3-us-west-2.amazonaws.com/static.fantasydata.com/logos/ncaa/148.png,VALP,"{'StadiumID': 256, 'Active': True, 'Name': 'Athletics-Recreation Center', 'Address': None, 'City': 'Valparaiso', 'State': 'IN', 'Zip': None, 'Country': None, 'Capacity': 5000, 'GeoLat': 41.464198, 'GeoLong': -87.048338}"
148,149,OAK,True,Oakland,Golden Grizzlies,,19.0,11.0,12.0,7.0,60000149,14.0,Horizon League,https://s3-us-west-2.amazonaws.com/static.fantasydata.com/logos/ncaa/149.png,OAK,"{'StadiumID': 124, 'Active': True, 'Name': ""Athletics Center O'rena"", 'Address': None, 'City': 'Rochester', 'State': 'MI', 'Zip': None, 'Country': None, 'Capacity': 4000, 'GeoLat': 42.673972, 'GeoLong': -83.213158}"
149,150,WRGHT,True,Wright State,Raiders,,18.0,13.0,15.0,7.0,60000150,14.0,Horizon League,https://s3-us-west-2.amazonaws.com/static.fantasydata.com/logos/ncaa/150.png,WRIGHT,"{'StadiumID': 92, 'Active': True, 'Name': 'Nutter Center', 'Address': None, 'City': 'Dayton', 'State': 'OH', 'Zip': None, 'Country': None, 'Capacity': 8000, 'GeoLat': 39.781944, 'GeoLong': -84.0525}"
150,151,WBD,True,Milwaukee,Panthers,,10.0,21.0,8.0,14.0,60000151,14.0,Horizon League,https://s3-us-west-2.amazonaws.com/static.fantasydata.com/logos/ncaa/151.png,WBD,"{'StadiumID': 164, 'Active': True, 'Name': 'UW-Milwaukee Panther Arena', 'Address': None, 'City': 'Milwaukee', 'State': 'WI', 'Zip': None, 'Country': None, 'Capacity': 12700, 'GeoLat': 43.042222, 'GeoLong': -87.916944}"
151,152,GB,True,Green Bay,Phoenix,,5.0,24.0,4.0,16.0,60000152,14.0,Horizon League,https://s3-us-west-2.amazonaws.com/static.fantasydata.com/logos/ncaa/152.png,GB,"{'StadiumID': 112, 'Active': True, 'Name': 'Kress Events Center', 'Address': None, 'City': 'Green Bay', 'State': 'WI', 'Zip': None, 'Country': None, 'Capacity': 4018, 'GeoLat': 44.530069, 'GeoLong': -87.915967}"
152,153,DET,True,Detroit,Titans,,13.0,14.0,10.0,7.0,60000153,14.0,Horizon League,https://s3-us-west-2.amazonaws.com/static.fantasydata.com/logos/ncaa/153.png,DET,"{'StadiumID': 304, 'Active': True, 'Name': 'Calihan Hall', 'Address': None, 'City': 'Detroit', 'State': 'MI', 'Zip': None, 'Country': None, 'Capacity': 8295, 'GeoLat': 42.414167, 'GeoLong': -83.135833}"
153,154,NKENT,True,Northern Kentucky,Norse,,18.0,11.0,14.0,6.0,60000154,14.0,Horizon League,https://s3-us-west-2.amazonaws.com/static.fantasydata.com/logos/ncaa/154.png,NKENT,"{'StadiumID': 320, 'Active': True, 'Name': 'BB&T Arena', 'Address': None, 'City': 'Highland Heights', 'State': 'KY', 'Zip': None, 'Country': None, 'Capacity': 8427, 'GeoLat': 39.032273, 'GeoLong': -84.458864}"
154,155,YNGST,True,Youngstown State,Penguins,,18.0,13.0,12.0,9.0,60000155,14.0,Horizon League,https://s3-us-west-2.amazonaws.com/static.fantasydata.com/logos/ncaa/155.png,YNGST,"{'StadiumID': 349, 'Active': True, 'Name': 'Beeghly Center', 'Address': None, 'City': 'Youngstown', 'State': 'OH', 'Zip': None, 'Country': None, 'Capacity': 6300, 'GeoLat': 41.108056, 'GeoLong': -80.648889}"
155,156,CLVST,True,Cleveland State,Vikings,,19.0,9.0,15.0,6.0,60000156,14.0,Horizon League,https://s3-us-west-2.amazonaws.com/static.fantasydata.com/logos/ncaa/156.png,CLVST,"{'StadiumID': 158, 'Active': True, 'Name': 'Wolstein Center', 'Address': None, 'City': 'Cleveland', 'State': 'OH', 'Zip': None, 'Country': None, 'Capacity': 13610, 'GeoLat': 41.499167, 'GeoLong': -81.676944}"
156,157,ILLCHI,True,UIC,Flames,,13.0,15.0,9.0,10.0,60000157,14.0,Horizon League,https://s3-us-west-2.amazonaws.com/static.fantasydata.com/logos/ncaa/157.png,UIC,"{'StadiumID': 225, 'Active': True, 'Name': 'Credit Union 1 Arena', 'Address': None, 'City': 'Chicago', 'State': 'IL', 'Zip': None, 'Country': None, 'Capacity': 8000, 'GeoLat': 41.874722, 'GeoLong': -87.656111}"
157,158,YALE,True,Yale,Bulldogs,,16.0,11.0,10.0,3.0,60000158,16.0,Ivy League,https://s3-us-west-2.amazonaws.com/static.fantasydata.com/logos/ncaa/158.png,YALE,"{'StadiumID': 355, 'Active': True, 'Name': 'John J. Lee Amphitheater', 'Address': None, 'City': 'New Haven', 'State': 'CT', 'Zip': None, 'Country': None, 'Capacity': 2800, 'GeoLat': 41.31345, 'GeoLong': -72.93088}"
158,159,COLMB,True,Columbia,Lions,,4.0,21.0,1.0,12.0,60000159,16.0,Ivy League,https://s3-us-west-2.amazonaws.com/static.fantasydata.com/logos/ncaa/159.png,COL,"{'StadiumID': 346, 'Active': True, 'Name': 'Levien Gymnasium', 'Address': None, 'City': 'New York', 'State': 'NY', 'Zip': None, 'Country': None, 'Capacity': 2500, 'GeoLat': 40.80979, 'GeoLong': -73.961715}"
159,160,PRNCE,True,Princeton,Tigers,,21.0,5.0,11.0,2.0,60000160,16.0,Ivy League,https://s3-us-west-2.amazonaws.com/static.fantasydata.com/logos/ncaa/160.png,PRNCE,"{'StadiumID': 251, 'Active': True, 'Name': 'Jadwin Gymnasium', 'Address': None, 'City': 'Princeton', 'State': 'NJ', 'Zip': None, 'Country': None, 'Capacity': 6854, 'GeoLat': 40.343449, 'GeoLong': -74.648595}"
160,161,PENN,True,Penn,Quakers,,12.0,14.0,9.0,4.0,60000161,16.0,Ivy League,https://s3-us-west-2.amazonaws.com/static.fantasydata.com/logos/ncaa/161.png,UPENN,"{'StadiumID': 331, 'Active': True, 'Name': 'The Palestra', 'Address': None, 'City': 'Philadelphia', 'State': 'PA', 'Zip': None, 'Country': None, 'Capacity': 8722, 'GeoLat': 39.951411, 'GeoLong': -75.188606}"
161,162,CORNEL,True,Cornell,Big Red,,14.0,10.0,6.0,7.0,60000162,16.0,Ivy League,https://s3-us-west-2.amazonaws.com/static.fantasydata.com/logos/ncaa/162.png,CORNEL,"{'StadiumID': 177, 'Active': True, 'Name': 'Newman Arena', 'Address': None, 'City': 'Ithaca', 'State': 'NY', 'Zip': None, 'Country': None, 'Capacity': 4473, 'GeoLat': 42.445794, 'GeoLong': -76.476581}"
162,163,BROWN,True,Brown,Bears,,13.0,15.0,5.0,8.0,60000163,16.0,Ivy League,https://s3-us-west-2.amazonaws.com/static.fantasydata.com/logos/ncaa/163.png,BROWN,"{'StadiumID': 285, 'Active': True, 'Name': 'Pizzitola Sports Center', 'Address': None, 'City': 'Providence', 'State': 'RI', 'Zip': None, 'Country': None, 'Capacity': 2800, 'GeoLat': 41.831743, 'GeoLong': -71.398043}"
163,164,HARVRD,True,Harvard,Crimson,,13.0,12.0,5.0,8.0,60000164,16.0,Ivy League,https://s3-us-west-2.amazonaws.com/static.fantasydata.com/logos/ncaa/164.png,HARVARD,"{'StadiumID': 118, 'Active': True, 'Name': 'Lavietes Pavilion', 'Address': None, 'City': 'Cambridge', 'State': 'MA', 'Zip': None, 'Country': None, 'Capacity': 1636, 'GeoLat': 42.368218, 'GeoLong': -71.125291}"
164,165,DART,True,Dartmouth,Big Green,,8.0,16.0,5.0,8.0,60000165,16.0,Ivy League,https://s3-us-west-2.amazonaws.com/static.fantasydata.com/logos/ncaa/165.png,DART,"{'StadiumID': 353, 'Active': True, 'Name': 'Edward Leede Arena', 'Address': None, 'City': 'Hanover', 'State': 'NH', 'Zip': None, 'Country': None, 'Capacity': 2100, 'GeoLat': 43.703056, 'GeoLong': -72.283333}"
165,166,MONM,True,Monmouth,Hawks,,18.0,11.0,10.0,8.0,60000166,17.0,Metro Atlantic Athletic,https://s3-us-west-2.amazonaws.com/static.fantasydata.com/logos/ncaa/166.png,MONM,"{'StadiumID': 69, 'Active': True, 'Name': 'OceanFirst Bank Center', 'Address': None, 'City': 'West Long Branch', 'State': 'NJ', 'Zip': None, 'Country': None, 'Capacity': 4100, 'GeoLat': 40.279475, 'GeoLong': -74.007583}"
166,167,IONA,True,Iona,Gaels,,24.0,5.0,16.0,2.0,60000167,17.0,Metro Atlantic Athletic,https://s3-us-west-2.amazonaws.com/static.fantasydata.com/logos/ncaa/167.png,IONA,"{'StadiumID': 132, 'Active': True, 'Name': 'Hynes Athletics Center', 'Address': None, 'City': 'New Rochelle', 'State': 'NY', 'Zip': None, 'Country': None, 'Capacity': 2578, 'GeoLat': 40.92664, 'GeoLong': -73.784325}"
167,168,SIENA,True,Siena,Saints,,15.0,11.0,12.0,6.0,60000168,17.0,Metro Atlantic Athletic,https://s3-us-west-2.amazonaws.com/static.fantasydata.com/logos/ncaa/168.png,SIENA,"{'StadiumID': 250, 'Active': True, 'Name': 'MVP Arena', 'Address': '51 South Pearl Street', 'City': 'Albany', 'State': 'NY', 'Zip': None, 'Country': None, 'Capacity': 15727, 'GeoLat': 42.648611, 'GeoLong': -73.754722}"
168,169,STPETE,True,Saint Peter's,Peacocks,,14.0,11.0,12.0,6.0,60000169,17.0,Metro Atlantic Athletic,https://s3-us-west-2.amazonaws.com/static.fantasydata.com/logos/ncaa/169.png,STP,"{'StadiumID': 90, 'Active': True, 'Name': 'Yanitelli Center', 'Address': None, 'City': 'Jersey City', 'State': 'NJ', 'Zip': None, 'Country': None, 'Capacity': 3200, 'GeoLat': 40.727648, 'GeoLong': -74.073173}"
169,170,FAIR,True,Fairfield,Stags,,13.0,16.0,7.0,11.0,60000170,17.0,Metro Atlantic Athletic,https://s3-us-west-2.amazonaws.com/static.fantasydata.com/logos/ncaa/170.png,FAIR,"{'StadiumID': 203, 'Active': True, 'Name': 'Webster Bank Arena', 'Address': None, 'City': 'Bridgeport', 'State': 'CT', 'Zip': None, 'Country': None, 'Capacity': 10000, 'GeoLat': 41.1732, 'GeoLong': -73.187}"
170,171,MANH,True,Manhattan,Jaspers,,14.0,13.0,7.0,11.0,60000171,17.0,Metro Atlantic Athletic,https://s3-us-west-2.amazonaws.com/static.fantasydata.com/logos/ncaa/171.png,MANH,"{'StadiumID': 68, 'Active': True, 'Name': 'Draddy Gymnasium', 'Address': None, 'City': 'Riverdale', 'State': 'NY', 'Zip': None, 'Country': None, 'Capacity': 2345, 'GeoLat': 40.89073, 'GeoLong': -73.900158}"
171,172,CANS,True,Canisius,Golden Griffins,,9.0,20.0,5.0,13.0,60000172,17.0,Metro Atlantic Athletic,https://s3-us-west-2.amazonaws.com/static.fantasydata.com/logos/ncaa/172.png,CANS,"{'StadiumID': 354, 'Active': True, 'Name': 'Koessler Athletic Center', 'Address': None, 'City': 'Buffalo', 'State': 'NY', 'Zip': None, 'Country': None, 'Capacity': 2196, 'GeoLat': 42.920919, 'GeoLong': -78.85754}"
172,173,RIDER,True,Rider,Broncs,,11.0,17.0,7.0,11.0,60000173,17.0,Metro Atlantic Athletic,https://s3-us-west-2.amazonaws.com/static.fantasydata.com/logos/ncaa/173.png,RIDER,"{'StadiumID': 370, 'Active': True, 'Name': 'Alumni Gymnasium (Rider)', 'Address': None, 'City': 'Lawrenceville', 'State': 'NJ', 'Zip': None, 'Country': None, 'Capacity': 1650, 'GeoLat': 40.2788, 'GeoLong': -74.7354}"
173,174,QUIN,True,Quinnipiac,Bobcats,,12.0,14.0,7.0,11.0,60000174,17.0,Metro Atlantic Athletic,https://s3-us-west-2.amazonaws.com/static.fantasydata.com/logos/ncaa/174.png,QUIN,"{'StadiumID': 224, 'Active': True, 'Name': ""People's United Center"", 'Address': None, 'City': 'Hamden', 'State': 'CT', 'Zip': None, 'Country': None, 'Capacity': 3570, 'GeoLat': 41.413833, 'GeoLong': -72.911157}"
174,175,NIAGRA,True,Niagara,Purple Eagles,,12.0,15.0,7.0,11.0,60000175,17.0,Metro Atlantic Athletic,https://s3-us-west-2.amazonaws.com/static.fantasydata.com/logos/ncaa/175.png,NIAGRA,"{'StadiumID': 187, 'Active': True, 'Name': 'Gallagher Center', 'Address': None, 'City': 'Niagara Falls', 'State': 'NY', 'Zip': None, 'Country': None, 'Capacity': 2400, 'GeoLat': 43.137035, 'GeoLong': -79.038026}"
175,176,MARIST,True,Marist,Red Foxes,,14.0,13.0,9.0,9.0,60000176,17.0,Metro Atlantic Athletic,https://s3-us-west-2.amazonaws.com/static.fantasydata.com/logos/ncaa/176.png,MARIST,"{'StadiumID': 162, 'Active': True, 'Name': 'McCann Arena', 'Address': None, 'City': 'Poughkeepsie', 'State': 'NY', 'Zip': None, 'Country': None, 'Capacity': 3200, 'GeoLat': 41.718431, 'GeoLong': -73.934}"
176,177,AKRON,True,Akron,Zips,,19.0,9.0,12.0,6.0,60000177,18.0,Mid-American,https://s3-us-west-2.amazonaws.com/static.fantasydata.com/logos/ncaa/177.png,AKRON,"{'StadiumID': 295, 'Active': True, 'Name': 'James A. Rhodes Arena', 'Address': None, 'City': 'Akron', 'State': 'OH', 'Zip': None, 'Country': None, 'Capacity': 5500, 'GeoLat': 41.075833, 'GeoLong': -81.508611}"
177,178,KENTST,True,Kent State,Golden Flashes,,19.0,9.0,14.0,4.0,60000178,18.0,Mid-American,https://s3-us-west-2.amazonaws.com/static.fantasydata.com/logos/ncaa/178.png,KENTST,"{'StadiumID': 240, 'Active': True, 'Name': 'MAC Center', 'Address': None, 'City': 'Kent', 'State': 'OH', 'Zip': None, 'Country': None, 'Capacity': 6327, 'GeoLat': 41.148, 'GeoLong': -81.344}"
178,179,BUF,True,Buffalo,Bulls,,19.0,8.0,12.0,4.0,60000179,18.0,Mid-American,https://s3-us-west-2.amazonaws.com/static.fantasydata.com/logos/ncaa/179.png,BUF,"{'StadiumID': 16, 'Active': True, 'Name': 'Alumni Arena', 'Address': None, 'City': 'Buffalo', 'State': 'NY', 'Zip': None, 'Country': None, 'Capacity': 6783, 'GeoLat': 43.0, 'GeoLong': -78.781111}"
179,180,OHIO,True,Ohio,Bobcats,,23.0,6.0,14.0,4.0,60000180,18.0,Mid-American,https://s3-us-west-2.amazonaws.com/static.fantasydata.com/logos/ncaa/180.png,OHIO,"{'StadiumID': 189, 'Active': True, 'Name': 'Convocation Center (OH)', 'Address': None, 'City': 'Athens', 'State': 'OH', 'Zip': None, 'Country': None, 'Capacity': 13000, 'GeoLat': 39.323056, 'GeoLong': -82.105556}"
180,181,BOWLGR,True,Bowling Green,Falcons,,12.0,17.0,5.0,13.0,60000181,18.0,Mid-American,https://s3-us-west-2.amazonaws.com/static.fantasydata.com/logos/ncaa/181.png,BOWLGR,"{'StadiumID': 222, 'Active': True, 'Name': 'Stroh Center', 'Address': None, 'City': 'Bowling Green', 'State': 'OH', 'Zip': None, 'Country': None, 'Capacity': 4347, 'GeoLat': 41.375343, 'GeoLong': -83.624711}"
181,182,MIAOH,True,Miami (OH),RedHawks,,12.0,17.0,6.0,11.0,60000182,18.0,Mid-American,https://s3-us-west-2.amazonaws.com/static.fantasydata.com/logos/ncaa/182.png,MIAOH,"{'StadiumID': 272, 'Active': True, 'Name': 'Millett Hall', 'Address': None, 'City': 'Oxford', 'State': 'OH', 'Zip': None, 'Country': None, 'Capacity': 6400, 'GeoLat': 39.517236, 'GeoLong': -84.734544}"
182,183,TOLEDO,True,Toledo,Rockets,,23.0,6.0,15.0,3.0,60000183,18.0,Mid-American,https://s3-us-west-2.amazonaws.com/static.fantasydata.com/logos/ncaa/183.png,TOLEDO,"{'StadiumID': 299, 'Active': True, 'Name': 'Savage Arena', 'Address': None, 'City': 'Toledo', 'State': 'OH', 'Zip': None, 'Country': None, 'Capacity': 7014, 'GeoLat': 41.660232, 'GeoLong': -83.609795}"
183,184,BALLST,True,Ball State,Cardinals,,13.0,15.0,8.0,9.0,60000184,18.0,Mid-American,https://s3-us-west-2.amazonaws.com/static.fantasydata.com/logos/ncaa/184.png,BALLST,"{'StadiumID': 23, 'Active': True, 'Name': 'Worthen Arena', 'Address': None, 'City': 'Muncie', 'State': 'IN', 'Zip': None, 'Country': None, 'Capacity': 11500, 'GeoLat': 40.206944, 'GeoLong': -85.406111}"
184,185,CMICH,True,Central Michigan,Chippewas,,7.0,20.0,6.0,10.0,60000185,18.0,Mid-American,https://s3-us-west-2.amazonaws.com/static.fantasydata.com/logos/ncaa/185.png,CMICH,"{'StadiumID': 364, 'Active': True, 'Name': 'McGuirk Arena', 'Address': None, 'City': 'Mount Pleasant', 'State': 'MI', 'Zip': None, 'Country': None, 'Capacity': 5300, 'GeoLat': 43.580888, 'GeoLong': -84.773941}"
185,186,NILL,True,Northern Illinois,Huskies,,8.0,20.0,5.0,13.0,60000186,18.0,Mid-American,https://s3-us-west-2.amazonaws.com/static.fantasydata.com/logos/ncaa/186.png,NIU,"{'StadiumID': 123, 'Active': True, 'Name': 'NIU Convocation Center', 'Address': None, 'City': 'Dekalb', 'State': 'IL', 'Zip': None, 'Country': None, 'Capacity': 9100, 'GeoLat': 41.935106, 'GeoLong': -88.785569}"
186,187,EMICH,True,Eastern Michigan,Eagles,,10.0,19.0,5.0,13.0,60000187,18.0,Mid-American,https://s3-us-west-2.amazonaws.com/static.fantasydata.com/logos/ncaa/187.png,EMICH,"{'StadiumID': 111, 'Active': True, 'Name': 'Convocation Center (MI)', 'Address': None, 'City': 'Ypsilanti', 'State': 'MI', 'Zip': None, 'Country': None, 'Capacity': 8754, 'GeoLat': 42.254444, 'GeoLong': -83.647222}"
187,188,WMICH,True,Western Michigan,Broncos,,7.0,22.0,3.0,15.0,60000188,18.0,Mid-American,https://s3-us-west-2.amazonaws.com/static.fantasydata.com/logos/ncaa/188.png,WMICH,"{'StadiumID': 328, 'Active': True, 'Name': 'University Arena (MI)', 'Address': None, 'City': 'Kalamazoo', 'State': 'MI', 'Zip': None, 'Country': None, 'Capacity': 5421, 'GeoLat': 42.283372, 'GeoLong': -85.60845}"
188,189,HAMP,True,Hampton,Pirates,,9.0,18.0,5.0,11.0,60000189,8.0,Big South,https://s3-us-west-2.amazonaws.com/static.fantasydata.com/logos/ncaa/189.png,HAMPTON,"{'StadiumID': 362, 'Active': True, 'Name': 'Convocation Center (VA)', 'Address': None, 'City': 'Hampton', 'State': 'VA', 'Zip': None, 'Country': None, 'Capacity': 7200, 'GeoLat': 37.01974, 'GeoLong': -76.33108}"
189,190,SCARST,True,South Carolina State,Bulldogs,,15.0,14.0,7.0,6.0,60000190,19.0,Mid-Eastern,https://s3-us-west-2.amazonaws.com/static.fantasydata.com/logos/ncaa/190.png,SCARST,"{'StadiumID': 418, 'Active': True, 'Name': 'S-H-M Memorial Center', 'Address': None, 'City': 'Orangeburg', 'State': 'SC', 'Zip': None, 'Country': None, 'Capacity': 3200, 'GeoLat': 33.500979, 'GeoLong': -80.846522}"
190,191,NORFST,True,Norfolk State,Spartans,,20.0,6.0,11.0,2.0,60000191,19.0,Mid-Eastern,https://s3-us-west-2.amazonaws.com/static.fantasydata.com/logos/ncaa/191.png,NORFST,"{'StadiumID': 289, 'Active': True, 'Name': 'Echols Hall', 'Address': None, 'City': 'Norfolk', 'State': 'VA', 'Zip': None, 'Country': None, 'Capacity': 4500, 'GeoLat': 36.847999, 'GeoLong': -76.258157}"
191,192,BCOOK,True,Bethune-Cookman,Wildcats,,9.0,20.0,7.0,10.0,60000192,29.0,Southwestern Athletic,https://s3-us-west-2.amazonaws.com/static.fantasydata.com/logos/ncaa/192.png,BCOOK,"{'StadiumID': 239, 'Active': True, 'Name': 'Moore Gymnasium (Daytona Beach, FL)', 'Address': None, 'City': 'Daytona Beach', 'State': 'FL', 'Zip': None, 'Country': None, 'Capacity': 1000, 'GeoLat': 29.210895, 'GeoLong': -81.030977}"
192,193,MDES,True,Maryland Eastern Shore,Hawks,,10.0,14.0,5.0,8.0,60000193,19.0,Mid-Eastern,https://s3-us-west-2.amazonaws.com/static.fantasydata.com/logos/ncaa/193.png,MDES,"{'StadiumID': 200, 'Active': True, 'Name': 'Hytche Arena', 'Address': None, 'City': 'Princess Anne', 'State': 'MD', 'Zip': None, 'Country': None, 'Capacity': 5500, 'GeoLat': 38.211184, 'GeoLong': -75.687227}"
193,194,SAVST,False,Savannah State,Tigers,,11.0,20.0,8.0,8.0,60000194,,,https://s3-us-west-2.amazonaws.com/static.fantasydata.com/logos/ncaa/194.png,SAVST,"{'StadiumID': 201, 'Active': True, 'Name': 'Tiger Arena', 'Address': None, 'City': 'Savannah', 'State': 'GA', 'Zip': None, 'Country': None, 'Capacity': 5000, 'GeoLat': 32.02376, 'GeoLong': -81.0658}"
194,195,HOWRD,True,Howard,Bison,,16.0,11.0,9.0,4.0,60000195,19.0,Mid-Eastern,https://s3-us-west-2.amazonaws.com/static.fantasydata.com/logos/ncaa/195.png,HOWARD,"{'StadiumID': 363, 'Active': True, 'Name': 'Burr Gymnasium', 'Address': None, 'City': 'Washington', 'State': 'DC', 'Zip': None, 'Country': None, 'Capacity': 2700, 'GeoLat': 38.9264, 'GeoLong': -77.0221}"
195,196,NCAT,True,North Carolina A&T,Aggies,,11.0,19.0,6.0,10.0,60000196,8.0,Big South,https://s3-us-west-2.amazonaws.com/static.fantasydata.com/logos/ncaa/196.png,NCAT,"{'StadiumID': 40, 'Active': True, 'Name': 'Corbett Sports Center', 'Address': None, 'City': 'Greensboro', 'State': 'NC', 'Zip': None, 'Country': None, 'Capacity': 5000, 'GeoLat': 36.076783, 'GeoLong': -79.768849}"
196,197,NCC,True,North Carolina Central,Eagles,,14.0,14.0,7.0,5.0,60000197,19.0,Mid-Eastern,https://s3-us-west-2.amazonaws.com/static.fantasydata.com/logos/ncaa/197.png,NCC,"{'StadiumID': 337, 'Active': True, 'Name': 'McDougald-McLendon Arena', 'Address': None, 'City': 'Durham', 'State': 'NC', 'Zip': None, 'Country': None, 'Capacity': 3500, 'GeoLat': 35.975884, 'GeoLong': -78.897745}"
197,198,FLAM,True,Florida A&M,Rattlers,,12.0,16.0,10.0,7.0,60000198,29.0,Southwestern Athletic,https://s3-us-west-2.amazonaws.com/static.fantasydata.com/logos/ncaa/198.png,FLAM,"{'StadiumID': 406, 'Active': True, 'Name': 'Al Lawson Center', 'Address': None, 'City': 'Tallahassee', 'State': 'FL', 'Zip': None, 'Country': None, 'Capacity': 9639, 'GeoLat': 30.424318, 'GeoLong': -84.290473}"
198,199,MORGST,True,Morgan State,Bears,,11.0,13.0,6.0,6.0,60000199,19.0,Mid-Eastern,https://s3-us-west-2.amazonaws.com/static.fantasydata.com/logos/ncaa/199.png,MORGST,"{'StadiumID': 237, 'Active': True, 'Name': 'Hill Field House', 'Address': None, 'City': 'Baltimore', 'State': 'MD', 'Zip': None, 'Country': None, 'Capacity': 4250, 'GeoLat': 39.3425, 'GeoLong': -76.585}"
199,200,COPPST,True,Coppin State,Eagles,,7.0,21.0,6.0,7.0,60000200,19.0,Mid-Eastern,https://s3-us-west-2.amazonaws.com/static.fantasydata.com/logos/ncaa/200.png,COPPST,"{'StadiumID': 347, 'Active': True, 'Name': 'Physical Education Complex', 'Address': None, 'City': 'Baltimore', 'State': 'MD', 'Zip': None, 'Country': None, 'Capacity': 4100, 'GeoLat': 39.315453, 'GeoLong': -76.657381}"
200,201,DELST,True,Delaware State,Hornets,,2.0,24.0,0.0,13.0,60000201,19.0,Mid-Eastern,https://s3-us-west-2.amazonaws.com/static.fantasydata.com/logos/ncaa/201.png,DELST,"{'StadiumID': 292, 'Active': True, 'Name': 'Memorial Hall (Dover, DE)', 'Address': None, 'City': 'Dover', 'State': 'DE', 'Zip': None, 'Country': None, 'Capacity': 1800, 'GeoLat': 39.1876, 'GeoLong': -75.5434}"
201,202,WICHST,True,Wichita State,Shockers,,13.0,12.0,4.0,9.0,60000202,1.0,American Athletic,https://s3-us-west-2.amazonaws.com/static.fantasydata.com/logos/ncaa/202.png,WICHST,"{'StadiumID': 49, 'Active': True, 'Name': 'Charles Koch Arena', 'Address': None, 'City': 'Wichita', 'State': 'KS', 'Zip': None, 'Country': None, 'Capacity': 10506, 'GeoLat': 37.721667, 'GeoLong': -97.2975}"
202,203,EVANS,True,Evansville,Aces,,6.0,23.0,2.0,16.0,60000203,20.0,Missouri Valley,https://s3-us-west-2.amazonaws.com/static.fantasydata.com/logos/ncaa/203.png,EVANS,"{'StadiumID': 297, 'Active': True, 'Name': 'Ford Center', 'Address': None, 'City': 'Evansville', 'State': 'IN', 'Zip': None, 'Country': None, 'Capacity': 10000, 'GeoLat': 37.972189, 'GeoLong': -87.567844}"
203,204,ILLST,True,Illinois State,Redbirds,,12.0,19.0,5.0,13.0,60000204,20.0,Missouri Valley,https://s3-us-west-2.amazonaws.com/static.fantasydata.com/logos/ncaa/204.png,ILLST,"{'StadiumID': 34, 'Active': True, 'Name': 'Redbird Arena', 'Address': None, 'City': 'Normal', 'State': 'IL', 'Zip': None, 'Country': None, 'Capacity': 10000, 'GeoLat': 40.510606, 'GeoLong': -88.999011}"
204,205,SILL,True,Southern Illinois,Salukis,,16.0,14.0,9.0,9.0,60000205,20.0,Missouri Valley,https://s3-us-west-2.amazonaws.com/static.fantasydata.com/logos/ncaa/205.png,SILL,"{'StadiumID': 186, 'Active': True, 'Name': 'SIU Arena', 'Address': None, 'City': 'Carbondale', 'State': 'IL', 'Zip': None, 'Country': None, 'Capacity': 9000, 'GeoLat': 37.708333, 'GeoLong': -89.218611}"
205,206,NIOWA,True,UNI,Panthers,,18.0,10.0,14.0,4.0,60000206,20.0,Missouri Valley,https://s3-us-west-2.amazonaws.com/static.fantasydata.com/logos/ncaa/206.png,NIOWA,"{'StadiumID': 397, 'Active': True, 'Name': 'McLeod Center', 'Address': None, 'City': 'Cedar Falls', 'State': 'IA', 'Zip': None, 'Country': None, 'Capacity': 6650, 'GeoLat': 42.51395, 'GeoLong': -92.46714}"
206,207,INDST,True,Indiana State,Sycamores,,11.0,19.0,4.0,14.0,60000207,20.0,Missouri Valley,https://s3-us-west-2.amazonaws.com/static.fantasydata.com/logos/ncaa/207.png,INDST,"{'StadiumID': 273, 'Active': True, 'Name': 'Hulman Center', 'Address': None, 'City': 'Terre Haute', 'State': 'IN', 'Zip': None, 'Country': None, 'Capacity': 10200, 'GeoLat': 39.468333, 'GeoLong': -87.405}"
207,208,MSRST,True,Missouri State,Bears,,22.0,9.0,13.0,5.0,60000208,20.0,Missouri Valley,https://s3-us-west-2.amazonaws.com/static.fantasydata.com/logos/ncaa/208.png,MSRST,"{'StadiumID': 63, 'Active': True, 'Name': 'JQH Arena', 'Address': None, 'City': 'Springfield', 'State': 'MO', 'Zip': None, 'Country': None, 'Capacity': 11000, 'GeoLat': 37.202047, 'GeoLong': -93.283058}"
208,209,LOYCH,True,Loyola Chicago,Ramblers,,22.0,7.0,13.0,5.0,60000209,20.0,Missouri Valley,https://s3-us-west-2.amazonaws.com/static.fantasydata.com/logos/ncaa/209.png,LOYCH,"{'StadiumID': 71, 'Active': True, 'Name': 'Joseph J. Gentile Arena', 'Address': None, 'City': 'Chicago', 'State': 'IL', 'Zip': None, 'Country': None, 'Capacity': 4963, 'GeoLat': 42.000556, 'GeoLong': -87.658889}"
209,210,BRADLY,True,Bradley,Braves,,17.0,13.0,11.0,7.0,60000210,20.0,Missouri Valley,https://s3-us-west-2.amazonaws.com/static.fantasydata.com/logos/ncaa/210.png,BRADLY,"{'StadiumID': 149, 'Active': True, 'Name': 'Carver Arena', 'Address': None, 'City': 'Peoria', 'State': 'IL', 'Zip': None, 'Country': None, 'Capacity': 11060, 'GeoLat': 41.663611, 'GeoLong': -91.554444}"
210,211,DRAKE,True,Drake,Bulldogs,,22.0,9.0,13.0,5.0,60000211,20.0,Missouri Valley,https://s3-us-west-2.amazonaws.com/static.fantasydata.com/logos/ncaa/211.png,DRAKE,"{'StadiumID': 293, 'Active': True, 'Name': 'The Knapp Center', 'Address': None, 'City': 'Des Moines', 'State': 'IA', 'Zip': None, 'Country': None, 'Capacity': 7152, 'GeoLat': 41.604444, 'GeoLong': -93.651944}"
211,212,SDST,True,San Diego State,Aztecs,,19.0,7.0,11.0,4.0,60000212,21.0,Mountain West,https://s3-us-west-2.amazonaws.com/static.fantasydata.com/logos/ncaa/212.png,SDSU,"{'StadiumID': 83, 'Active': True, 'Name': 'Viejas Arena', 'Address': None, 'City': 'San Diego', 'State': 'CA', 'Zip': None, 'Country': None, 'Capacity': 12414, 'GeoLat': 32.77375, 'GeoLong': -117.074583}"
212,213,FREST,True,Fresno State,Bulldogs,,18.0,10.0,8.0,7.0,60000213,21.0,Mountain West,https://s3-us-west-2.amazonaws.com/static.fantasydata.com/logos/ncaa/213.png,FRESNO,"{'StadiumID': 314, 'Active': True, 'Name': 'Save Mart Center', 'Address': None, 'City': 'Fresno', 'State': 'CA', 'Zip': None, 'Country': None, 'Capacity': 15596, 'GeoLat': 36.809722, 'GeoLong': -119.738611}"
213,214,NMX,True,New Mexico,Lobos,,12.0,18.0,4.0,12.0,60000214,21.0,Mountain West,https://s3-us-west-2.amazonaws.com/static.fantasydata.com/logos/ncaa/214.png,UNM,"{'StadiumID': 208, 'Active': True, 'Name': 'The Pit', 'Address': None, 'City': 'Albuquerque', 'State': 'NM', 'Zip': None, 'Country': None, 'Capacity': 15411, 'GeoLat': 35.067, 'GeoLong': -106.632}"
214,215,BOISE,True,Boise State,Broncos,,23.0,6.0,14.0,2.0,60000215,21.0,Mountain West,https://s3-us-west-2.amazonaws.com/static.fantasydata.com/logos/ncaa/215.png,BOISE,"{'StadiumID': 171, 'Active': True, 'Name': 'ExtraMile Arena', 'Address': None, 'City': 'Boise', 'State': 'ID', 'Zip': None, 'Country': None, 'Capacity': 12380, 'GeoLat': 43.6035, 'GeoLong': -116.199}"
215,216,NEVADA,True,Nevada,Wolf Pack,,12.0,15.0,6.0,10.0,60000216,21.0,Mountain West,https://s3-us-west-2.amazonaws.com/static.fantasydata.com/logos/ncaa/216.png,NEVADA,"{'StadiumID': 5, 'Active': True, 'Name': 'Lawlor Events Center', 'Address': None, 'City': 'Reno', 'State': 'NV', 'Zip': None, 'Country': None, 'Capacity': 11536, 'GeoLat': 39.545069, 'GeoLong': -119.818269}"
216,217,COLST,True,Colorado State,Rams,,23.0,4.0,13.0,4.0,60000217,21.0,Mountain West,https://s3-us-west-2.amazonaws.com/static.fantasydata.com/logos/ncaa/217.png,COLST,"{'StadiumID': 155, 'Active': True, 'Name': 'Moby Arena', 'Address': None, 'City': 'Fort Collins', 'State': 'CO', 'Zip': None, 'Country': None, 'Capacity': 8083, 'GeoLat': 40.575669, 'GeoLong': -105.093403}"
217,218,UNLV,True,UNLV,Runnin' Rebels,,17.0,12.0,9.0,7.0,60000218,21.0,Mountain West,https://s3-us-west-2.amazonaws.com/static.fantasydata.com/logos/ncaa/218.png,UNLV,"{'StadiumID': 173, 'Active': True, 'Name': 'Thomas & Mack Center', 'Address': None, 'City': 'Las Vegas', 'State': 'NV', 'Zip': None, 'Country': None, 'Capacity': 18000, 'GeoLat': 36.105, 'GeoLong': -115.144167}"
218,219,WYOM,True,Wyoming,Cowboys,,23.0,6.0,12.0,4.0,60000219,21.0,Mountain West,https://s3-us-west-2.amazonaws.com/static.fantasydata.com/logos/ncaa/219.png,WYOM,"{'StadiumID': 82, 'Active': True, 'Name': 'Arena-Auditorium', 'Address': None, 'City': 'Laramie', 'State': 'WY', 'Zip': None, 'Country': None, 'Capacity': 11612, 'GeoLat': 41.313344, 'GeoLong': -105.569419}"
219,220,UTAHST,True,Utah State,Aggies,,16.0,14.0,7.0,10.0,60000220,21.0,Mountain West,https://s3-us-west-2.amazonaws.com/static.fantasydata.com/logos/ncaa/220.png,USU,"{'StadiumID': 138, 'Active': True, 'Name': 'Dee Glen Smith Spectrum', 'Address': None, 'City': 'Logan', 'State': 'UT', 'Zip': None, 'Country': None, 'Capacity': 10270, 'GeoLat': 41.748, 'GeoLong': -111.812}"
220,221,AIRF,True,Air Force,Falcons,,10.0,17.0,3.0,13.0,60000221,21.0,Mountain West,https://s3-us-west-2.amazonaws.com/static.fantasydata.com/logos/ncaa/221.png,AIR,"{'StadiumID': 277, 'Active': True, 'Name': 'Clune Arena', 'Address': None, 'City': 'Colorado Springs', 'State': 'CO', 'Zip': None, 'Country': None, 'Capacity': 5843, 'GeoLat': 39.014, 'GeoLong': -104.8833}"
221,222,SJST,True,San Jose State,Spartans,,8.0,20.0,1.0,15.0,60000222,21.0,Mountain West,https://s3-us-west-2.amazonaws.com/static.fantasydata.com/logos/ncaa/222.png,SJSU,"{'StadiumID': 415, 'Active': True, 'Name': 'Provident Credit Union Event Center', 'Address': None, 'City': 'San Jose', 'State': 'CA', 'Zip': None, 'Country': None, 'Capacity': 5000, 'GeoLat': 37.33536, 'GeoLong': -121.87985}"
222,223,WAG,True,Wagner,Seahawks,,19.0,5.0,15.0,3.0,60000223,22.0,Northeast,https://s3-us-west-2.amazonaws.com/static.fantasydata.com/logos/ncaa/223.png,WAG,"{'StadiumID': 232, 'Active': True, 'Name': 'Spiro Sports Center', 'Address': None, 'City': 'Staten Island', 'State': 'NY', 'Zip': None, 'Country': None, 'Capacity': 2100, 'GeoLat': 40.614966, 'GeoLong': -74.095729}"
223,224,FAIRDK,True,Fairleigh Dickinson,Knights,,4.0,22.0,5.0,13.0,60000224,22.0,Northeast,https://s3-us-west-2.amazonaws.com/static.fantasydata.com/logos/ncaa/224.png,FDU,"{'StadiumID': 282, 'Active': True, 'Name': 'Rothman Center', 'Address': None, 'City': 'Teaneck', 'State': 'NJ', 'Zip': None, 'Country': None, 'Capacity': 1852, 'GeoLat': 40.8967, 'GeoLong': -74.0324}"
224,225,STFPA,True,Saint Francis U,Red Flash,,9.0,20.0,5.0,13.0,60000225,22.0,Northeast,https://s3-us-west-2.amazonaws.com/static.fantasydata.com/logos/ncaa/225.png,SFU,"{'StadiumID': 125, 'Active': True, 'Name': 'DeGol Arena', 'Address': None, 'City': 'Loretto', 'State': 'PA', 'Zip': None, 'Country': None, 'Capacity': 3500, 'GeoLat': 40.50451, 'GeoLong': -78.643304}"
225,226,MSTM,True,Mount St. Mary's,Mountaineers,,13.0,15.0,9.0,9.0,60000226,22.0,Northeast,https://s3-us-west-2.amazonaws.com/static.fantasydata.com/logos/ncaa/226.png,MSMU,"{'StadiumID': 249, 'Active': True, 'Name': 'Knott Arena', 'Address': None, 'City': 'Emmitsburg', 'State': 'MD', 'Zip': None, 'Country': None, 'Capacity': 3121, 'GeoLat': 39.679492, 'GeoLong': -77.346435}"
226,227,SACRED,True,Sacred Heart,Pioneers,,10.0,19.0,6.0,12.0,60000227,22.0,Northeast,https://s3-us-west-2.amazonaws.com/static.fantasydata.com/logos/ncaa/227.png,SACRED,"{'StadiumID': 288, 'Active': True, 'Name': 'William H. Pitt Center', 'Address': None, 'City': 'Fairfield', 'State': 'CT', 'Zip': None, 'Country': None, 'Capacity': 2062, 'GeoLat': 41.219439, 'GeoLong': -73.244628}"
227,228,STF,True,St. Francis Brooklyn,Terriers,,10.0,19.0,7.0,11.0,60000228,22.0,Northeast,https://s3-us-west-2.amazonaws.com/static.fantasydata.com/logos/ncaa/228.png,STF,"{'StadiumID': 368, 'Active': True, 'Name': 'Pope Physical Education Center', 'Address': None, 'City': 'Brooklyn', 'State': 'NY', 'Zip': None, 'Country': None, 'Capacity': 1200, 'GeoLat': 40.693147, 'GeoLong': -73.992164}"
228,229,LIUB,True,LIU,Sharks,,15.0,13.0,12.0,6.0,60000229,22.0,Northeast,https://s3-us-west-2.amazonaws.com/static.fantasydata.com/logos/ncaa/229.png,LIUB,"{'StadiumID': 126, 'Active': True, 'Name': 'Steinberg Wellness Center', 'Address': None, 'City': 'Brooklyn', 'State': 'NY', 'Zip': None, 'Country': None, 'Capacity': 2500, 'GeoLat': 40.69059, 'GeoLong': -73.979176}"
229,230,ROBMS,True,Robert Morris,Colonials,,7.0,23.0,5.0,16.0,60000230,14.0,Horizon League,https://s3-us-west-2.amazonaws.com/static.fantasydata.com/logos/ncaa/230.png,RMU,"{'StadiumID': 447, 'Active': True, 'Name': 'UPMC Events Center', 'Address': None, 'City': 'Moon Township', 'State': 'PA', 'Zip': None, 'Country': None, 'Capacity': 4000, 'GeoLat': 40.520212, 'GeoLong': -80.21476}"
230,231,BRYANT,True,Bryant,Bulldogs,,19.0,9.0,16.0,2.0,60000231,22.0,Northeast,https://s3-us-west-2.amazonaws.com/static.fantasydata.com/logos/ncaa/231.png,BRYANT,"{'StadiumID': 213, 'Active': True, 'Name': 'Chace Athletic Center', 'Address': None, 'City': 'Smithfield', 'State': 'RI', 'Zip': None, 'Country': None, 'Capacity': 2670, 'GeoLat': 41.921008, 'GeoLong': -71.539639}"
231,232,CENCON,True,Central Connecticut State,Blue Devils,,8.0,23.0,5.0,13.0,60000232,22.0,Northeast,https://s3-us-west-2.amazonaws.com/static.fantasydata.com/logos/ncaa/232.png,CENCON,"{'StadiumID': 198, 'Active': True, 'Name': 'William H. Detrick Gymnasium', 'Address': None, 'City': 'New Britain', 'State': 'CT', 'Zip': None, 'Country': None, 'Capacity': 2654, 'GeoLat': 41.693, 'GeoLong': -72.7649}"
232,233,BELM,True,Belmont,Bruins,,25.0,6.0,15.0,3.0,60000233,23.0,Ohio Valley,https://s3-us-west-2.amazonaws.com/static.fantasydata.com/logos/ncaa/233.png,BELM,"{'StadiumID': 169, 'Active': True, 'Name': 'Curb Event Center', 'Address': None, 'City': 'Nashville', 'State': 'TN', 'Zip': None, 'Country': None, 'Capacity': 5000, 'GeoLat': 36.132222, 'GeoLong': -86.794444}"
233,234,TENTCH,True,Tennessee Tech,Golden Eagles,,10.0,20.0,7.0,10.0,60000234,23.0,Ohio Valley,https://s3-us-west-2.amazonaws.com/static.fantasydata.com/logos/ncaa/234.png,TNTECH,"{'StadiumID': 167, 'Active': True, 'Name': 'Hooper Eblen Center', 'Address': None, 'City': 'Cookeville', 'State': 'TN', 'Zip': None, 'Country': None, 'Capacity': 7500, 'GeoLat': 36.178508, 'GeoLong': -85.51}"
234,235,TENST,True,Tennessee State,Tigers,,13.0,17.0,8.0,10.0,60000235,23.0,Ohio Valley,https://s3-us-west-2.amazonaws.com/static.fantasydata.com/logos/ncaa/235.png,TNST,"{'StadiumID': 206, 'Active': True, 'Name': 'Gentry Center', 'Address': None, 'City': 'Nashville', 'State': 'TN', 'Zip': None, 'Country': None, 'Capacity': 8000, 'GeoLat': 36.168889, 'GeoLong': -86.829444}"
235,236,MHST,True,Morehead State,Eagles,,21.0,10.0,13.0,5.0,60000236,23.0,Ohio Valley,https://s3-us-west-2.amazonaws.com/static.fantasydata.com/logos/ncaa/236.png,MHST,"{'StadiumID': 280, 'Active': True, 'Name': 'Ellis T. Johnson Arena', 'Address': None, 'City': 'Morehead', 'State': 'KY', 'Zip': None, 'Country': None, 'Capacity': 6500, 'GeoLat': 38.188786, 'GeoLong': -83.429006}"
236,237,EKENT,True,Eastern Kentucky,Colonels,,13.0,17.0,5.0,11.0,60000237,4.0,Atlantic Sun,https://s3-us-west-2.amazonaws.com/static.fantasydata.com/logos/ncaa/237.png,EKENT,"{'StadiumID': 91, 'Active': True, 'Name': 'McBrayer Arena', 'Address': None, 'City': 'Richmond', 'State': 'KY', 'Zip': None, 'Country': None, 'Capacity': 6500, 'GeoLat': 37.737222, 'GeoLong': -84.301389}"
237,238,JAXST,True,Jacksonville State,Gamecocks,,20.0,9.0,13.0,3.0,60000238,4.0,Atlantic Sun,https://s3-us-west-2.amazonaws.com/static.fantasydata.com/logos/ncaa/238.png,JSU,"{'StadiumID': 391, 'Active': True, 'Name': 'Pete Mathews Coliseum', 'Address': None, 'City': 'Jacksonville', 'State': 'AL', 'Zip': None, 'Country': None, 'Capacity': 3500, 'GeoLat': 33.824, 'GeoLong': -85.773}"
238,239,EILL,True,Eastern Illinois,Panthers,,5.0,26.0,3.0,15.0,60000239,23.0,Ohio Valley,https://s3-us-west-2.amazonaws.com/static.fantasydata.com/logos/ncaa/239.png,EILL,"{'StadiumID': 413, 'Active': True, 'Name': 'Lantz Arena', 'Address': None, 'City': 'Charleston', 'State': 'IL', 'Zip': None, 'Country': None, 'Capacity': 5300, 'GeoLat': 39.480403, 'GeoLong': -88.178844}"
239,240,MURST,True,Murray State,Racers,22.0,28.0,2.0,18.0,0.0,60000240,23.0,Ohio Valley,https://s3-us-west-2.amazonaws.com/static.fantasydata.com/logos/ncaa/240.png,MURST,"{'StadiumID': 170, 'Active': True, 'Name': 'CFSB Center', 'Address': None, 'City': 'Murray', 'State': 'KY', 'Zip': None, 'Country': None, 'Capacity': 8600, 'GeoLat': 36.62267, 'GeoLong': -88.32031}"
240,241,TMRT,True,UT Martin,Skyhawks,,8.0,22.0,4.0,14.0,60000241,23.0,Ohio Valley,https://s3-us-west-2.amazonaws.com/static.fantasydata.com/logos/ncaa/241.png,TMRT,"{'StadiumID': 248, 'Active': True, 'Name': 'Skyhawk Arena', 'Address': None, 'City': 'Martin', 'State': 'TN', 'Zip': None, 'Country': None, 'Capacity': 4300, 'GeoLat': 36.343604, 'GeoLong': -88.868134}"
241,242,AUSP,True,Austin Peay,Governors,,12.0,16.0,8.0,10.0,60000242,23.0,Ohio Valley,https://s3-us-west-2.amazonaws.com/static.fantasydata.com/logos/ncaa/242.png,AUSP,"{'StadiumID': 407, 'Active': True, 'Name': 'Winfield Dunn Center', 'Address': None, 'City': 'Clarksville', 'State': 'TN', 'Zip': None, 'Country': None, 'Capacity': 7257, 'GeoLat': 36.536111, 'GeoLong': -87.356944}"
242,243,SEMST,True,Southeast Missouri State,Redhawks,,13.0,17.0,8.0,9.0,60000243,23.0,Ohio Valley,https://s3-us-west-2.amazonaws.com/static.fantasydata.com/logos/ncaa/243.png,SEMST,"{'StadiumID': 340, 'Active': True, 'Name': 'Show Me Center', 'Address': None, 'City': 'Cape Girardeau', 'State': 'MO', 'Zip': None, 'Country': None, 'Capacity': 7373, 'GeoLat': 37.32, 'GeoLong': -89.5271}"
243,244,SIUE,True,SIUE,Cougars,,11.0,20.0,5.0,13.0,60000244,23.0,Ohio Valley,https://s3-us-west-2.amazonaws.com/static.fantasydata.com/logos/ncaa/244.png,SIUE,"{'StadiumID': 51, 'Active': True, 'Name': 'Vadalabene Center', 'Address': None, 'City': 'Edwardsville', 'State': 'IL', 'Zip': None, 'Country': None, 'Capacity': 4000, 'GeoLat': 38.795989, 'GeoLong': -89.999883}"
244,245,ORE,True,Oregon,Ducks,,18.0,11.0,11.0,7.0,60000245,24.0,Pac-12,https://s3-us-west-2.amazonaws.com/static.fantasydata.com/logos/ncaa/245.png,OREGON,"{'StadiumID': 9, 'Active': True, 'Name': 'Matthew Knight Arena', 'Address': None, 'City': 'Eugene', 'State': 'OR', 'Zip': None, 'Country': None, 'Capacity': 12364, 'GeoLat': 44.045, 'GeoLong': -123.066}"
245,246,USC,True,USC,Trojans,16.0,25.0,4.0,14.0,4.0,60000246,24.0,Pac-12,https://s3-us-west-2.amazonaws.com/static.fantasydata.com/logos/ncaa/246.png,USC,"{'StadiumID': 84, 'Active': True, 'Name': 'Galen Center', 'Address': None, 'City': 'Los Angeles', 'State': 'CA', 'Zip': None, 'Country': None, 'Capacity': 10258, 'GeoLat': 34.021, 'GeoLong': -118.28}"
246,247,ARZ,True,Arizona,Wildcats,2.0,25.0,3.0,15.0,2.0,60000247,24.0,Pac-12,https://s3-us-west-2.amazonaws.com/static.fantasydata.com/logos/ncaa/247.png,ARZ,"{'StadiumID': 94, 'Active': True, 'Name': 'McKale Center', 'Address': None, 'City': 'Tucson', 'State': 'AZ', 'Zip': None, 'Country': None, 'Capacity': 14644, 'GeoLat': 32.23, 'GeoLong': -110.946}"
247,248,UTAH,True,Utah,Runnin' Utes,,11.0,18.0,4.0,15.0,60000248,24.0,Pac-12,https://s3-us-west-2.amazonaws.com/static.fantasydata.com/logos/ncaa/248.png,UTAH,"{'StadiumID': 102, 'Active': True, 'Name': 'Jon M. Huntsman Center', 'Address': None, 'City': 'Salt Lake City', 'State': 'UT', 'Zip': None, 'Country': None, 'Capacity': 15000, 'GeoLat': 40.762, 'GeoLong': -111.839}"
248,249,WASH,True,Washington,Huskies,,14.0,14.0,9.0,9.0,60000249,24.0,Pac-12,https://s3-us-west-2.amazonaws.com/static.fantasydata.com/logos/ncaa/249.png,WASH,"{'StadiumID': 15, 'Active': True, 'Name': 'Alaska Airlines Arena', 'Address': None, 'City': 'Seattle', 'State': 'WA', 'Zip': None, 'Country': None, 'Capacity': 10000, 'GeoLat': 47.652, 'GeoLong': -122.302}"
249,250,COL,True,Colorado,Buffaloes,,19.0,10.0,11.0,8.0,60000250,24.0,Pac-12,https://s3-us-west-2.amazonaws.com/static.fantasydata.com/logos/ncaa/250.png,COL,"{'StadiumID': 205, 'Active': True, 'Name': 'CU Events Center', 'Address': None, 'City': 'Boulder', 'State': 'CO', 'Zip': None, 'Country': None, 'Capacity': 11064, 'GeoLat': 40.0047, 'GeoLong': -105.2606}"
250,251,CAH,True,California,Golden Bears,,12.0,17.0,5.0,13.0,60000251,24.0,Pac-12,https://s3-us-west-2.amazonaws.com/static.fantasydata.com/logos/ncaa/251.png,CAL,"{'StadiumID': 210, 'Active': True, 'Name': 'Haas Pavilion', 'Address': None, 'City': 'Berkeley', 'State': 'CA', 'Zip': None, 'Country': None, 'Capacity': 11877, 'GeoLat': 37.8694, 'GeoLong': -122.262}"
251,252,OREGST,True,Oregon State,Beavers,,3.0,25.0,1.0,17.0,60000252,24.0,Pac-12,https://s3-us-west-2.amazonaws.com/static.fantasydata.com/logos/ncaa/252.png,ORSTU,"{'StadiumID': 70, 'Active': True, 'Name': 'Gill Coliseum', 'Address': None, 'City': 'Corvallis', 'State': 'OR', 'Zip': None, 'Country': None, 'Capacity': 9301, 'GeoLat': 44.5613, 'GeoLong': -123.2805}"
252,253,UCLA,True,UCLA,Bruins,17.0,22.0,6.0,14.0,5.0,60000253,24.0,Pac-12,https://s3-us-west-2.amazonaws.com/static.fantasydata.com/logos/ncaa/253.png,UCLA,"{'StadiumID': 109, 'Active': True, 'Name': 'Pauley Pavilion', 'Address': None, 'City': 'Los Angeles', 'State': 'CA', 'Zip': None, 'Country': None, 'Capacity': 13800, 'GeoLat': 34.070211, 'GeoLong': -118.446775}"
253,254,STAN,True,Stanford,Cardinal,,15.0,13.0,8.0,10.0,60000254,24.0,Pac-12,https://s3-us-west-2.amazonaws.com/static.fantasydata.com/logos/ncaa/254.png,STAN,"{'StadiumID': 79, 'Active': True, 'Name': 'Maples Pavilion', 'Address': None, 'City': 'Stanford', 'State': 'CA', 'Zip': None, 'Country': None, 'Capacity': 7233, 'GeoLat': 37.4296, 'GeoLong': -122.1605}"
254,255,ARZST,True,Arizona State,Sun Devils,,12.0,16.0,8.0,10.0,60000255,24.0,Pac-12,https://s3-us-west-2.amazonaws.com/static.fantasydata.com/logos/ncaa/255.png,ASU,"{'StadiumID': 137, 'Active': True, 'Name': 'Desert Financial Arena (AZ)', 'Address': None, 'City': 'Tempe', 'State': 'AZ', 'Zip': None, 'Country': None, 'Capacity': 14198, 'GeoLat': 33.424524, 'GeoLong': -111.930948}"
255,256,WASHST,True,Washington State,Cougars,,16.0,13.0,9.0,9.0,60000256,24.0,Pac-12,https://s3-us-west-2.amazonaws.com/static.fantasydata.com/logos/ncaa/256.png,WSU,"{'StadiumID': 182, 'Active': True, 'Name': 'Friel Court', 'Address': None, 'City': 'Pullman', 'State': 'WA', 'Zip': None, 'Country': None, 'Capacity': 11671, 'GeoLat': 46.735, 'GeoLong': -117.1575}"
256,257,BUCK,True,Bucknell,Bison,,8.0,22.0,5.0,13.0,60000257,25.0,Patriot League,https://s3-us-west-2.amazonaws.com/static.fantasydata.com/logos/ncaa/257.png,BUCK,"{'StadiumID': 163, 'Active': True, 'Name': 'Sojka Pavilion', 'Address': None, 'City': 'Lewisburg', 'State': 'PA', 'Zip': None, 'Country': None, 'Capacity': 4000, 'GeoLat': 40.956964, 'GeoLong': -76.887093}"
257,258,NAVY,True,Navy,Midshipmen,,19.0,10.0,12.0,6.0,60000258,25.0,Patriot League,https://s3-us-west-2.amazonaws.com/static.fantasydata.com/logos/ncaa/258.png,NAVY,"{'StadiumID': 113, 'Active': True, 'Name': 'Alumni Hall (Navy)', 'Address': None, 'City': 'Annapolis', 'State': 'MD', 'Zip': None, 'Country': None, 'Capacity': 5710, 'GeoLat': 38.984491, 'GeoLong': -76.487782}"
258,259,BOSTU,True,Boston University,Terriers,,20.0,11.0,11.0,7.0,60000259,25.0,Patriot League,https://s3-us-west-2.amazonaws.com/static.fantasydata.com/logos/ncaa/259.png,BU,"{'StadiumID': 122, 'Active': True, 'Name': 'Case Gym', 'Address': None, 'City': 'Boston', 'State': 'MA', 'Zip': None, 'Country': None, 'Capacity': 1800, 'GeoLat': 42.353932, 'GeoLong': -71.120355}"
259,260,LEHI,True,Lehigh,Mountain Hawks,,12.0,18.0,10.0,8.0,60000260,25.0,Patriot League,https://s3-us-west-2.amazonaws.com/static.fantasydata.com/logos/ncaa/260.png,LEHIGH,"{'StadiumID': 196, 'Active': True, 'Name': 'Stabler Arena', 'Address': None, 'City': 'Bethlehem', 'State': 'PA', 'Zip': None, 'Country': None, 'Capacity': 5600, 'GeoLat': 40.584444, 'GeoLong': -75.356944}"
260,261,COLG,True,Colgate,Raiders,,20.0,11.0,16.0,2.0,60000261,25.0,Patriot League,https://s3-us-west-2.amazonaws.com/static.fantasydata.com/logos/ncaa/261.png,COLGATE,"{'StadiumID': 120, 'Active': True, 'Name': 'Cotterell Court', 'Address': None, 'City': 'Hamilton', 'State': 'NY', 'Zip': None, 'Country': None, 'Capacity': 1782, 'GeoLat': 42.814957, 'GeoLong': -75.542754}"
261,262,LOYMD,True,Loyola Maryland,Greyhounds,,14.0,15.0,8.0,10.0,60000262,25.0,Patriot League,https://s3-us-west-2.amazonaws.com/static.fantasydata.com/logos/ncaa/262.png,LOYMD,"{'StadiumID': 181, 'Active': True, 'Name': 'Reitz Arena', 'Address': None, 'City': 'Baltimore', 'State': 'MD', 'Zip': None, 'Country': None, 'Capacity': 2100, 'GeoLat': 39.346803, 'GeoLong': -76.618615}"
262,263,ARMY,True,Army,Black Knights,,15.0,15.0,9.0,9.0,60000263,25.0,Patriot League,https://s3-us-west-2.amazonaws.com/static.fantasydata.com/logos/ncaa/263.png,ARMY,"{'StadiumID': 305, 'Active': True, 'Name': 'Christl Arena', 'Address': None, 'City': 'West Point', 'State': 'NY', 'Zip': None, 'Country': None, 'Capacity': 5043, 'GeoLat': 41.38641, 'GeoLong': -73.96571}"
263,264,HOLY,True,Holy Cross,Crusaders,,9.0,21.0,7.0,11.0,60000264,25.0,Patriot League,https://s3-us-west-2.amazonaws.com/static.fantasydata.com/logos/ncaa/264.png,HOLY,"{'StadiumID': 39, 'Active': True, 'Name': 'Hart Center', 'Address': None, 'City': 'Worcester', 'State': 'MA', 'Zip': None, 'Country': None, 'Capacity': 3536, 'GeoLat': 42.235046, 'GeoLong': -71.806381}"
264,265,AMERCN,True,American University,Eagles,,9.0,21.0,5.0,13.0,60000265,25.0,Patriot League,https://s3-us-west-2.amazonaws.com/static.fantasydata.com/logos/ncaa/265.png,AMERCN,"{'StadiumID': 321, 'Active': True, 'Name': 'Bender Arena', 'Address': None, 'City': 'Washington', 'State': 'DC', 'Zip': None, 'Country': None, 'Capacity': 3400, 'GeoLat': 38.937778, 'GeoLong': -77.09}"
